[
  {
    "name": "(주)송림- 푸른할인마트",
    "roadAddress": "서울특별시 종로구 필운대로6길 3",
    "address": "서울특별시 종로구 통인동 35-16",
    "lat": 37.5808280658825,
    "lng": 126.968805856754,
    "hasTrashBag": true,
    "hasSpecialBag": true,
    "dataReferenceDate": "2026-03-23",
    "businessStatus": "영업",
    "hasLargeWasteSticker": false,
    "adminVerified": false
  },
  {
    "name": "CU(신교동)",
    "roadAddress": "서울특별시 종로구 필운대로 112-4",
    "address": "서울특별시 종로구 신교동 36",
    "lat": 37.583787968111096,
    "lng": 126.96968351943754,
    "hasTrashBag": true,
    "hasSpecialBag": true,
    "dataReferenceDate": "2026-03-23",
    "businessStatus": "영업",
    "hasLargeWasteSticker": false,
    "adminVerified": false
  },
  {
    "name": "GS25 세종마을",
    "roadAddress": "서울특별시 종로구 옥인길 3",
    "address": "서울특별시 종로구 누하동 77-5",
    "lat": 37.5804397839761,
    "lng": 126.968303587561,
    "hasTrashBag": true,
    "hasSpecialBag": false,
    "dataReferenceDate": "2026-03-16",
    "businessStatus": "영업",
    "hasLargeWasteSticker": false,
    "adminVerified": false
  },
  {
    "name": "GS25(청운중앙점)",
    "roadAddress": "서울특별시 종로구 자하문로 100-1",
    "address": "서울특별시 종로구 청운동 108-21",
    "lat": 37.5848895354478,
    "lng": 126.970445595355,
    "hasTrashBag": true,
    "hasSpecialBag": false,
    "dataReferenceDate": "2026-03-25",
    "businessStatus": "영업",
    "hasLargeWasteSticker": false,
    "adminVerified": false
  },
  {
    "name": "세븐일레븐(종로창성점)",
    "roadAddress": "서울특별시 종로구 자하문로 60",
    "address": "서울특별시 종로구 창성동 160",
    "lat": 37.5814638659561,
    "lng": 126.971163699329,
    "hasTrashBag": true,
    "hasSpecialBag": false,
    "dataReferenceDate": "2026-03-16",
    "businessStatus": "영업",
    "hasLargeWasteSticker": false,
    "adminVerified": false
  },
  {
    "name": "영진상회",
    "roadAddress": "서울특별시 종로구 자하문로33길 23",
    "address": "서울특별시 종로구 청운동 57-56",
    "lat": 37.5862209638523,
    "lng": 126.968476061176,
    "hasTrashBag": true,
    "hasSpecialBag": false,
    "dataReferenceDate": "2026-03-24",
    "businessStatus": "영업",
    "hasLargeWasteSticker": false,
    "adminVerified": false
  },
  {
    "name": "환경운동연합에코생활협동조합",
    "roadAddress": "서울특별시 종로구 필운대로 23",
    "address": "서울특별시 종로구 누하동 251",
    "lat": 37.5781046177005,
    "lng": 126.969095898846,
    "hasTrashBag": true,
    "hasSpecialBag": false,
    "dataReferenceDate": "2026-03-24",
    "businessStatus": "영업",
    "hasLargeWasteSticker": false,
    "adminVerified": false
  },
  {
    "name": "㈜코리아세븐(종로청운점)",
    "roadAddress": "서울특별시 종로구 자하문로 115",
    "address": "서울특별시 종로구 청운동 63",
    "lat": 37.5863391259968,
    "lng": 126.969667879422,
    "hasTrashBag": true,
    "hasSpecialBag": false,
    "dataReferenceDate": "2026-03-23",
    "businessStatus": "영업",
    "hasLargeWasteSticker": false,
    "adminVerified": false
  },
  {
    "name": "GS25 종로누하점",
    "roadAddress": "서울특별시 종로구 필운대로 39",
    "address": "서울특별시 종로구 누하동 57-2",
    "lat": 37.5795343715367,
    "lng": 126.968626958953,
    "hasTrashBag": true,
    "hasSpecialBag": false,
    "dataReferenceDate": "2026-03-24",
    "businessStatus": "영업",
    "hasLargeWasteSticker": false,
    "adminVerified": false
  },
  {
    "name": "CU(광화문광장점)",
    "roadAddress": "서울특별시 종로구 새문안로 103-1",
    "address": "서울특별시 종로구 신문로1가 1-1",
    "lat": 37.5704809608086,
    "lng": 126.976179012331,
    "hasTrashBag": true,
    "hasSpecialBag": false,
    "dataReferenceDate": "2026-03-09",
    "businessStatus": "영업",
    "hasLargeWasteSticker": false,
    "adminVerified": false
  },
  {
    "name": "CU(종로배화)",
    "roadAddress": "서울특별시 종로구 필운대로1길 36",
    "address": "서울특별시 종로구 필운동 41",
    "lat": 37.5779434546818,
    "lng": 126.967510609106,
    "hasTrashBag": true,
    "hasSpecialBag": false,
    "dataReferenceDate": "2026-03-16",
    "businessStatus": "영업",
    "hasLargeWasteSticker": false,
    "adminVerified": false
  },
  {
    "name": "GS25(종로내수)",
    "roadAddress": "서울특별시 종로구 새문안로3길 36",
    "address": "서울특별시 종로구 내수동 75",
    "lat": 37.57328317096674,
    "lng": 126.97295077808589,
    "hasTrashBag": true,
    "hasSpecialBag": false,
    "dataReferenceDate": "2026-03-23",
    "businessStatus": "영업",
    "hasLargeWasteSticker": false,
    "adminVerified": false
  },
  {
    "name": "서서울농협하나로마트(생활)",
    "roadAddress": "서울특별시 종로구 사직로8길 4",
    "address": "서울특별시 종로구 사직동 9",
    "lat": 37.57469251371372,
    "lng": 126.96999568377328,
    "hasTrashBag": true,
    "hasSpecialBag": true,
    "dataReferenceDate": "2026-03-23",
    "businessStatus": "영업",
    "hasLargeWasteSticker": false,
    "adminVerified": false
  },
  {
    "name": "세븐일레븐(종로광화문점)",
    "roadAddress": "서울특별시 종로구 새문안로9길 21",
    "address": "서울특별시 종로구 당주동 21-2",
    "lat": 37.5712124549253,
    "lng": 126.975620377534,
    "hasTrashBag": true,
    "hasSpecialBag": false,
    "dataReferenceDate": "2026-03-23",
    "businessStatus": "영업",
    "hasLargeWasteSticker": false,
    "adminVerified": false
  },
  {
    "name": "세븐일레븐(종로배화점)",
    "roadAddress": "서울특별시 종로구 필운대로 12",
    "address": "서울특별시 종로구 필운동 163",
    "lat": 37.5771635280143,
    "lng": 126.969437264904,
    "hasTrashBag": true,
    "hasSpecialBag": true,
    "dataReferenceDate": "2026-03-24",
    "businessStatus": "영업",
    "hasLargeWasteSticker": false,
    "adminVerified": false
  },
  {
    "name": "세븐일레븐(종로사직점)",
    "roadAddress": "서울특별시 종로구 인왕산로1길 29",
    "address": "서울특별시 종로구 사직동 304-36",
    "lat": 37.5735727385305,
    "lng": 126.964116371457,
    "hasTrashBag": true,
    "hasSpecialBag": false,
    "dataReferenceDate": "2026-03-09",
    "businessStatus": "영업",
    "hasLargeWasteSticker": false,
    "adminVerified": false
  },
  {
    "name": "세븐일레븐(종로서촌점)",
    "roadAddress": "서울특별시 종로구 자하문로 18-1",
    "address": "서울특별시 종로구 통의동 66",
    "lat": 37.5778156600465,
    "lng": 126.972328763113,
    "hasTrashBag": true,
    "hasSpecialBag": false,
    "dataReferenceDate": "2026-03-09",
    "businessStatus": "영업",
    "hasLargeWasteSticker": false,
    "adminVerified": false
  },
  {
    "name": "송암슈퍼",
    "roadAddress": "서울특별시 종로구 자하문로5길 4",
    "address": "서울특별시 종로구 체부동 88-1",
    "lat": 37.5778701492147,
    "lng": 126.971483424158,
    "hasTrashBag": true,
    "hasSpecialBag": true,
    "dataReferenceDate": "2026-03-24",
    "businessStatus": "영업",
    "hasLargeWasteSticker": false,
    "adminVerified": false
  },
  {
    "name": "지씨마트",
    "roadAddress": "서울특별시 종로구 사직로8길 20",
    "address": "서울특별시 종로구 내수동 95",
    "lat": 37.57428280876116,
    "lng": 126.97098636436688,
    "hasTrashBag": true,
    "hasSpecialBag": true,
    "dataReferenceDate": "2026-03-23",
    "businessStatus": "영업",
    "hasLargeWasteSticker": false,
    "adminVerified": false
  },
  {
    "name": "홈플러스(주)광화",
    "roadAddress": "서울특별시 종로구 새문안로 91",
    "address": "서울특별시 종로구 신문로1가 24",
    "lat": 37.57058060327166,
    "lng": 126.97483930296812,
    "hasTrashBag": true,
    "hasSpecialBag": false,
    "dataReferenceDate": "2026-03-20",
    "businessStatus": "영업",
    "hasLargeWasteSticker": false,
    "adminVerified": false
  },
  {
    "name": "씨유 종로경희궁점",
    "roadAddress": "서울특별시 종로구 경희궁길 4",
    "address": "서울특별시 종로구 신문로1가 58-18",
    "lat": 37.5705863977953,
    "lng": 126.972155304519,
    "hasTrashBag": true,
    "hasSpecialBag": false,
    "dataReferenceDate": "2026-03-23",
    "businessStatus": "영업",
    "hasLargeWasteSticker": false,
    "adminVerified": false
  },
  {
    "name": "씨유 경희당점",
    "roadAddress": "서울특별시 종로구 경희궁길 36",
    "address": "서울특별시 종로구 신문로2가 1-102",
    "lat": 37.5729199136655,
    "lng": 126.970063182815,
    "hasTrashBag": true,
    "hasSpecialBag": false,
    "dataReferenceDate": "2026-03-16",
    "businessStatus": "영업",
    "hasLargeWasteSticker": false,
    "adminVerified": false
  },
  {
    "name": "CU(종로삼청)",
    "roadAddress": "서울특별시 종로구 삼청로 132",
    "address": "서울특별시 종로구 삼청동 22",
    "lat": 37.5871156628222,
    "lng": 126.981798658978,
    "hasTrashBag": true,
    "hasSpecialBag": false,
    "dataReferenceDate": "2026-03-23",
    "businessStatus": "영업",
    "hasLargeWasteSticker": false,
    "adminVerified": false
  },
  {
    "name": "삼청마트",
    "roadAddress": "서울특별시 종로구 팔판길 31",
    "address": "서울특별시 종로구 팔판동 105-2",
    "lat": 37.5832247970017,
    "lng": 126.981115106029,
    "hasTrashBag": true,
    "hasSpecialBag": false,
    "dataReferenceDate": "2026-03-16",
    "businessStatus": "영업",
    "hasLargeWasteSticker": false,
    "adminVerified": false
  },
  {
    "name": "세븐일레븐(경복궁점)",
    "roadAddress": "서울특별시 종로구 삼청로 22",
    "address": "서울특별시 종로구 사간동 66",
    "lat": 37.5779186380994,
    "lng": 126.979865731314,
    "hasTrashBag": true,
    "hasSpecialBag": false,
    "dataReferenceDate": "2026-03-03",
    "businessStatus": "영업",
    "hasLargeWasteSticker": false,
    "adminVerified": false
  },
  {
    "name": "지에스25청와드림점",
    "roadAddress": "서울특별시 종로구 삼청로7길 23",
    "address": "서울특별시 종로구 팔판동 5-14",
    "lat": 37.5837733219724,
    "lng": 126.980561453344,
    "hasTrashBag": true,
    "hasSpecialBag": false,
    "dataReferenceDate": "2026-03-24",
    "businessStatus": "영업",
    "hasLargeWasteSticker": false,
    "adminVerified": false
  },
  {
    "name": "CU(부암럭키점)",
    "roadAddress": "서울특별시 종로구 백석동길 15",
    "address": "서울특별시 종로구 부암동 237-8",
    "lat": 37.5934294092252,
    "lng": 126.965766350539,
    "hasTrashBag": true,
    "hasSpecialBag": false,
    "dataReferenceDate": "2026-03-24",
    "businessStatus": "영업",
    "hasLargeWasteSticker": false,
    "adminVerified": false
  },
  {
    "name": "CU(종로부암점)",
    "roadAddress": "서울특별시 종로구 자하문로 266",
    "address": "서울특별시 종로구 부암동 129-8",
    "lat": 37.5978065037998,
    "lng": 126.963037926444,
    "hasTrashBag": true,
    "hasSpecialBag": true,
    "dataReferenceDate": "2026-03-16",
    "businessStatus": "영업",
    "hasLargeWasteSticker": false,
    "adminVerified": false
  },
  {
    "name": "CU(종로신영점)",
    "roadAddress": "서울특별시 종로구 세검정로6길 104",
    "address": "서울특별시 종로구 신영동 105-30",
    "lat": 37.60167486591231,
    "lng": 126.96177470835164,
    "hasTrashBag": true,
    "hasSpecialBag": true,
    "dataReferenceDate": "2026-03-23",
    "businessStatus": "영업",
    "hasLargeWasteSticker": false,
    "adminVerified": false
  },
  {
    "name": "GS25(상명사랑점)",
    "roadAddress": "서울특별시 종로구 세검정로 230",
    "address": "서울특별시 종로구 홍지동 94-2",
    "lat": 37.6001549672013,
    "lng": 126.958520598819,
    "hasTrashBag": true,
    "hasSpecialBag": true,
    "dataReferenceDate": "2026-03-23",
    "businessStatus": "영업",
    "hasLargeWasteSticker": false,
    "adminVerified": false
  },
  {
    "name": "신용전기슈퍼",
    "roadAddress": "서울특별시 종로구 창의문로 134",
    "address": "서울특별시 종로구 부암동 254-1",
    "lat": 37.5927117972172,
    "lng": 126.96555290147,
    "hasTrashBag": true,
    "hasSpecialBag": true,
    "dataReferenceDate": "2026-03-23",
    "businessStatus": "영업",
    "hasLargeWasteSticker": false,
    "adminVerified": false
  },
  {
    "name": "세븐일레븐 종로부암점",
    "roadAddress": "서울특별시 종로구 창의문로 147",
    "address": "서울특별시 종로구 부암동 307-1",
    "lat": 37.5928147838588,
    "lng": 126.963758499517,
    "hasTrashBag": true,
    "hasSpecialBag": false,
    "dataReferenceDate": "2026-03-24",
    "businessStatus": "영업",
    "hasLargeWasteSticker": false,
    "adminVerified": false
  },
  {
    "name": "지에스25 종로신영점",
    "roadAddress": "서울특별시 종로구 진흥로 484",
    "address": "서울특별시 종로구 신영동 240",
    "lat": 37.6051658114121,
    "lng": 126.96058381140864,
    "hasTrashBag": true,
    "hasSpecialBag": false,
    "dataReferenceDate": "2026-03-23",
    "businessStatus": "영업",
    "hasLargeWasteSticker": false,
    "adminVerified": false
  },
  {
    "name": "(주)지에스리테일(종로평창점)",
    "roadAddress": "서울특별시 종로구 평창문화로 75",
    "address": "서울특별시 종로구 평창동 158-1",
    "lat": 37.606760798799876,
    "lng": 126.96891258474305,
    "hasTrashBag": true,
    "hasSpecialBag": true,
    "dataReferenceDate": "2026-03-23",
    "businessStatus": "영업",
    "hasLargeWasteSticker": false,
    "adminVerified": false
  },
  {
    "name": "(주)지에스리테일구기",
    "roadAddress": "서울특별시 종로구 진흥로 456",
    "address": "서울특별시 종로구 구기동 94",
    "lat": 37.6068720018317,
    "lng": 126.958441783525,
    "hasTrashBag": true,
    "hasSpecialBag": true,
    "dataReferenceDate": "2026-03-23",
    "businessStatus": "영업",
    "hasLargeWasteSticker": false,
    "adminVerified": false
  },
  {
    "name": "CU(북한산구기점)",
    "roadAddress": "서울특별시 종로구 비봉길 7",
    "address": "서울특별시 종로구 구기동 125-5",
    "lat": 37.60903862160553,
    "lng": 126.95647062918165,
    "hasTrashBag": true,
    "hasSpecialBag": false,
    "dataReferenceDate": "2026-03-23",
    "businessStatus": "영업",
    "hasLargeWasteSticker": false,
    "adminVerified": false
  },
  {
    "name": "CU(평창다솜점)",
    "roadAddress": "서울특별시 종로구 평창길 8",
    "address": "서울특별시 종로구 평창동 345-6",
    "lat": 37.6054731062998,
    "lng": 126.964752688394,
    "hasTrashBag": true,
    "hasSpecialBag": false,
    "dataReferenceDate": "2026-03-23",
    "businessStatus": "영업",
    "hasLargeWasteSticker": false,
    "adminVerified": false
  },
  {
    "name": "GS25평창문화로점",
    "roadAddress": "서울특별시 종로구 평창문화로 154",
    "address": "서울특별시 종로구 평창동 106-2",
    "lat": 37.610186338285516,
    "lng": 126.97662390956795,
    "hasTrashBag": true,
    "hasSpecialBag": false,
    "dataReferenceDate": "2026-03-24",
    "businessStatus": "영업",
    "hasLargeWasteSticker": false,
    "adminVerified": false
  },
  {
    "name": "코사마트평창점",
    "roadAddress": "서울특별시 종로구 평창11길 5",
    "address": "서울특별시 종로구 평창동 339",
    "lat": 37.60615877221,
    "lng": 126.96665632622366,
    "hasTrashBag": true,
    "hasSpecialBag": true,
    "dataReferenceDate": "2026-03-23",
    "businessStatus": "영업",
    "hasLargeWasteSticker": false,
    "adminVerified": false
  },
  {
    "name": "(주)코리아세븐(경희궁롯데캐슬점)",
    "roadAddress": "서울특별시 종로구 통일로 230",
    "address": "서울특별시 종로구 무악동 89",
    "lat": 37.574374261303,
    "lng": 126.958604295236,
    "hasTrashBag": true,
    "hasSpecialBag": false,
    "dataReferenceDate": "2026-03-23",
    "businessStatus": "영업",
    "hasLargeWasteSticker": false,
    "adminVerified": false
  },
  {
    "name": "세븐일레븐인왕산파크점",
    "roadAddress": "서울특별시 종로구 통일로16길 8-3",
    "address": "서울특별시 종로구 무악동 60",
    "lat": 37.5763236628263,
    "lng": 126.957365886143,
    "hasTrashBag": true,
    "hasSpecialBag": false,
    "dataReferenceDate": "2026-03-23",
    "businessStatus": "영업",
    "hasLargeWasteSticker": false,
    "adminVerified": false
  },
  {
    "name": "지에스더프레시무악현대점",
    "roadAddress": "서울특별시 종로구 통일로 246-10",
    "address": "서울특별시 종로구 무악동 82",
    "lat": 37.5743447023263,
    "lng": 126.959103079359,
    "hasTrashBag": true,
    "hasSpecialBag": true,
    "dataReferenceDate": "2026-03-24",
    "businessStatus": "영업",
    "hasLargeWasteSticker": false,
    "adminVerified": false
  },
  {
    "name": "(주)코리아세븐(경희궁자이점)",
    "roadAddress": "서울특별시 종로구 송월길 99",
    "address": "서울특별시 종로구 홍파동 199",
    "lat": 37.57094664756576,
    "lng": 126.9622205662183,
    "hasTrashBag": true,
    "hasSpecialBag": true,
    "dataReferenceDate": "2026-03-23",
    "businessStatus": "영업",
    "hasLargeWasteSticker": false,
    "adminVerified": false
  },
  {
    "name": "CU(경희궁자이행복점)",
    "roadAddress": "서울특별시 종로구 경교장길 35",
    "address": "서울특별시 종로구 평동 233",
    "lat": 37.568884172872174,
    "lng": 126.96482506259991,
    "hasTrashBag": true,
    "hasSpecialBag": false,
    "dataReferenceDate": "2026-03-23",
    "businessStatus": "영업",
    "hasLargeWasteSticker": false,
    "adminVerified": false
  },
  {
    "name": "CU(종로행촌)",
    "roadAddress": "서울특별시 종로구 통일로12길 62",
    "address": "서울특별시 종로구 행촌동 210-113",
    "lat": 37.5750370603147,
    "lng": 126.961896550564,
    "hasTrashBag": true,
    "hasSpecialBag": false,
    "dataReferenceDate": "2026-03-23",
    "businessStatus": "영업",
    "hasLargeWasteSticker": false,
    "adminVerified": false
  },
  {
    "name": "GS25경희궁자이점",
    "roadAddress": "서울특별시 종로구 송월길 155",
    "address": "서울특별시 종로구 교북동 126",
    "lat": 37.571148,
    "lng": 126.961757,
    "hasTrashBag": true,
    "hasSpecialBag": false,
    "dataReferenceDate": "2026-03-10",
    "businessStatus": "영업",
    "hasLargeWasteSticker": false,
    "adminVerified": false
  },
  {
    "name": "행복슈퍼",
    "roadAddress": "서울특별시 종로구 인왕산로1길 55",
    "address": "서울특별시 종로구 행촌동 210-65",
    "lat": 37.5752298251523,
    "lng": 126.962877019193,
    "hasTrashBag": true,
    "hasSpecialBag": true,
    "dataReferenceDate": "2026-03-23",
    "businessStatus": "영업",
    "hasLargeWasteSticker": false,
    "adminVerified": false
  },
  {
    "name": "이마트24(행촌독립문점)",
    "roadAddress": "서울특별시 종로구 통일로12길 50-1",
    "address": "서울특별시 종로구 행촌동 210-210",
    "lat": 37.5745501111215,
    "lng": 126.961736730684,
    "hasTrashBag": true,
    "hasSpecialBag": true,
    "dataReferenceDate": "2026-03-23",
    "businessStatus": "영업",
    "hasLargeWasteSticker": false,
    "adminVerified": false
  },
  {
    "name": "CU(계동현대점)",
    "roadAddress": "서울특별시 종로구 계동길 23",
    "address": "서울특별시 종로구 계동 142-1",
    "lat": 37.578322076609815,
    "lng": 126.98666976133931,
    "hasTrashBag": true,
    "hasSpecialBag": true,
    "dataReferenceDate": "2026-03-23",
    "businessStatus": "영업",
    "hasLargeWasteSticker": false,
    "adminVerified": false
  },
  {
    "name": "CU(종로가회점)",
    "roadAddress": "서울특별시 종로구 북촌로 52",
    "address": "서울특별시 종로구 가회동 28",
    "lat": 37.5815093512458,
    "lng": 126.985229239519,
    "hasTrashBag": true,
    "hasSpecialBag": false,
    "dataReferenceDate": "2026-03-23",
    "businessStatus": "영업",
    "hasLargeWasteSticker": false,
    "adminVerified": false
  },
  {
    "name": "GS25(창덕궁돌담길점)",
    "roadAddress": "서울특별시 종로구 창덕궁길 31",
    "address": "서울특별시 종로구 원서동 155",
    "lat": 37.5788885989577,
    "lng": 126.989079989519,
    "hasTrashBag": true,
    "hasSpecialBag": false,
    "dataReferenceDate": "2026-03-03",
    "businessStatus": "영업",
    "hasLargeWasteSticker": false,
    "adminVerified": false
  },
  {
    "name": "GS25(계동중앙점)",
    "roadAddress": "서울특별시 종로구 계동길 61",
    "address": "서울특별시 종로구 계동 86",
    "lat": 37.5800430525775,
    "lng": 126.986557942101,
    "hasTrashBag": true,
    "hasSpecialBag": true,
    "dataReferenceDate": "2026-03-23",
    "businessStatus": "영업",
    "hasLargeWasteSticker": false,
    "adminVerified": false
  },
  {
    "name": "수연홈마트",
    "roadAddress": "서울특별시 종로구 계동길 99",
    "address": "서울특별시 종로구 계동 65-1",
    "lat": 37.581770637295385,
    "lng": 126.98672858342131,
    "hasTrashBag": true,
    "hasSpecialBag": true,
    "dataReferenceDate": "2026-03-23",
    "businessStatus": "영업",
    "hasLargeWasteSticker": false,
    "adminVerified": false
  },
  {
    "name": "㈜코리아세븐 종로재동점",
    "roadAddress": "서울특별시 종로구 북촌로5길 4",
    "address": "서울특별시 종로구 재동 12",
    "lat": 37.5795245799122,
    "lng": 126.984740338897,
    "hasTrashBag": true,
    "hasSpecialBag": true,
    "dataReferenceDate": "2026-03-23",
    "businessStatus": "영업",
    "hasLargeWasteSticker": false,
    "adminVerified": false
  },
  {
    "name": "(주)코리아세븐 종로코아점",
    "roadAddress": "서울특별시 종로구 종로12길 15",
    "address": "서울특별시 종로구 관철동 13-13",
    "lat": 37.56948550754494,
    "lng": 126.98612800227447,
    "hasTrashBag": true,
    "hasSpecialBag": true,
    "dataReferenceDate": "2026-03-25",
    "businessStatus": "영업",
    "hasLargeWasteSticker": false,
    "adminVerified": false
  },
  {
    "name": "(주)코리아세븐허브점",
    "roadAddress": "서울특별시 종로구 삼일대로 461",
    "address": "서울특별시 종로구 경운동 89-4",
    "lat": 37.57573608514877,
    "lng": 126.98550139044805,
    "hasTrashBag": true,
    "hasSpecialBag": false,
    "dataReferenceDate": "2026-03-25",
    "businessStatus": "영업",
    "hasLargeWasteSticker": false,
    "adminVerified": false
  },
  {
    "name": "동해식품",
    "roadAddress": "서울특별시 종로구 종로10길 20",
    "address": "서울특별시 종로구 관철동 43-7",
    "lat": 37.5691420895937,
    "lng": 126.984301453169,
    "hasTrashBag": true,
    "hasSpecialBag": false,
    "dataReferenceDate": "2026-03-25",
    "businessStatus": "영업",
    "hasLargeWasteSticker": false,
    "adminVerified": false
  },
  {
    "name": "레몬마트",
    "roadAddress": "서울특별시 종로구 돈화문로 52, 1층",
    "address": "서울특별시 종로구 묘동 112",
    "lat": 37.5732814607815,
    "lng": 126.99152695446102,
    "hasTrashBag": true,
    "hasSpecialBag": true,
    "dataReferenceDate": "2026-03-25",
    "businessStatus": "영업",
    "hasLargeWasteSticker": false,
    "adminVerified": false
  },
  {
    "name": "부부지티씨",
    "roadAddress": "서울특별시 종로구 종로18길 21",
    "address": "서울특별시 종로구 관수동 52-1",
    "lat": 37.5693893287528,
    "lng": 126.991349000926,
    "hasTrashBag": true,
    "hasSpecialBag": true,
    "dataReferenceDate": "2026-03-25",
    "businessStatus": "영업",
    "hasLargeWasteSticker": false,
    "adminVerified": false
  },
  {
    "name": "삼화열쇠",
    "roadAddress": "서울특별시 종로구 수표로 88",
    "address": "서울특별시 종로구 관수동 145-1",
    "lat": 37.5689213110078,
    "lng": 126.989718272815,
    "hasTrashBag": true,
    "hasSpecialBag": true,
    "dataReferenceDate": "2026-03-25",
    "businessStatus": "영업",
    "hasLargeWasteSticker": false,
    "adminVerified": false
  },
  {
    "name": "성신식품",
    "roadAddress": "서울특별시 종로구 돈화문로10가길 8",
    "address": "서울특별시 종로구 봉익동 12-24",
    "lat": 37.5729205025787,
    "lng": 126.992573527457,
    "hasTrashBag": true,
    "hasSpecialBag": false,
    "dataReferenceDate": "2026-03-11",
    "businessStatus": "영업",
    "hasLargeWasteSticker": false,
    "adminVerified": false
  },
  {
    "name": "세븐일레븐 종로가배점",
    "roadAddress": "서울특별시 종로구 종로 185",
    "address": "서울특별시 종로구 종로4가 14-1",
    "lat": 37.5710690004602,
    "lng": 126.998421581135,
    "hasTrashBag": true,
    "hasSpecialBag": false,
    "dataReferenceDate": "2026-03-25",
    "businessStatus": "영업",
    "hasLargeWasteSticker": false,
    "adminVerified": false
  },
  {
    "name": "세븐일레븐 종로관수점",
    "roadAddress": "서울특별시 종로구 삼일대로20길 19",
    "address": "서울특별시 종로구 관수동 3-2",
    "lat": 37.5697613335624,
    "lng": 126.98899008702,
    "hasTrashBag": true,
    "hasSpecialBag": false,
    "dataReferenceDate": "2026-03-25",
    "businessStatus": "영업",
    "hasLargeWasteSticker": false,
    "adminVerified": false
  },
  {
    "name": "씨유 종로제일점",
    "roadAddress": "서울특별시 종로구 수표로 118-1",
    "address": "서울특별시 종로구 낙원동 144-1",
    "lat": 37.5718429252076,
    "lng": 126.989231005885,
    "hasTrashBag": true,
    "hasSpecialBag": false,
    "dataReferenceDate": "2026-03-25",
    "businessStatus": "영업",
    "hasLargeWasteSticker": false,
    "adminVerified": false
  },
  {
    "name": "세븐일레븐(종로창경궁로점)",
    "roadAddress": "서울특별시 종로구 창경궁로 119",
    "address": "서울특별시 종로구 인의동 101-1",
    "lat": 37.57313757781799,
    "lng": 126.99743601720242,
    "hasTrashBag": true,
    "hasSpecialBag": false,
    "dataReferenceDate": "2026-03-25",
    "businessStatus": "영업",
    "hasLargeWasteSticker": false,
    "adminVerified": false
  },
  {
    "name": "세븐일레븐 종각점",
    "roadAddress": "서울특별시 종로구 종로10길 20",
    "address": "서울특별시 종로구 관철동 43-7",
    "lat": 37.5691420895937,
    "lng": 126.984301453169,
    "hasTrashBag": true,
    "hasSpecialBag": true,
    "dataReferenceDate": "2026-03-25",
    "businessStatus": "영업",
    "hasLargeWasteSticker": false,
    "adminVerified": false
  },
  {
    "name": "훼미리마트 원남사거리",
    "roadAddress": "서울특별시 종로구 율곡로 174",
    "address": "서울특별시 종로구 원남동 28-7",
    "lat": 37.5756266760808,
    "lng": 126.997957688597,
    "hasTrashBag": true,
    "hasSpecialBag": false,
    "dataReferenceDate": "2026-03-25",
    "businessStatus": "영업",
    "hasLargeWasteSticker": false,
    "adminVerified": false
  },
  {
    "name": "씨유 종로1가점",
    "roadAddress": "서울특별시 종로구 종로 19",
    "address": "서울특별시 종로구 종로1가 24",
    "lat": 37.5708444878121,
    "lng": 126.979923668151,
    "hasTrashBag": true,
    "hasSpecialBag": true,
    "dataReferenceDate": "2026-03-23",
    "businessStatus": "영업",
    "hasLargeWasteSticker": false,
    "adminVerified": false
  },
  {
    "name": "씨유 종로글로벌점",
    "roadAddress": "서울특별시 종로구 삼일대로32가길 37",
    "address": "서울특별시 종로구 익선동 50",
    "lat": 37.5746611904858,
    "lng": 126.989716351685,
    "hasTrashBag": true,
    "hasSpecialBag": false,
    "dataReferenceDate": "2026-03-25",
    "businessStatus": "영업",
    "hasLargeWasteSticker": false,
    "adminVerified": false
  },
  {
    "name": "씨유 종로묘동점",
    "roadAddress": "서울특별시 종로구 돈화문로 41",
    "address": "서울특별시 종로구 묘동 179",
    "lat": 37.5721849450676,
    "lng": 126.991460404665,
    "hasTrashBag": true,
    "hasSpecialBag": false,
    "dataReferenceDate": "2026-03-25",
    "businessStatus": "영업",
    "hasLargeWasteSticker": false,
    "adminVerified": false
  },
  {
    "name": "씨유 종로센터점",
    "roadAddress": "서울특별시 종로구 종로 78",
    "address": "서울특별시 종로구 종로2가 75-9",
    "lat": 37.5698795927378,
    "lng": 126.986041334865,
    "hasTrashBag": true,
    "hasSpecialBag": true,
    "dataReferenceDate": "2026-03-25",
    "businessStatus": "영업",
    "hasLargeWasteSticker": false,
    "adminVerified": false
  },
  {
    "name": "언더라인",
    "roadAddress": "서울특별시 종로구 김상옥로 5, 1층 B동",
    "address": "서울특별시 종로구 인의동 25",
    "lat": 37.5734877183353,
    "lng": 126.998185619926,
    "hasTrashBag": true,
    "hasSpecialBag": true,
    "dataReferenceDate": "2026-03-25",
    "businessStatus": "영업",
    "hasLargeWasteSticker": false,
    "adminVerified": false
  },
  {
    "name": "일번지슈퍼",
    "roadAddress": "서울특별시 종로구 삼일대로32길 26",
    "address": "서울특별시 종로구 익선동 1",
    "lat": 37.5753247480059,
    "lng": 126.988470117038,
    "hasTrashBag": true,
    "hasSpecialBag": false,
    "dataReferenceDate": "2026-03-17",
    "businessStatus": "영업",
    "hasLargeWasteSticker": false,
    "adminVerified": false
  },
  {
    "name": "GS25 종로인사",
    "roadAddress": "서울특별시 종로구 인사동길 59",
    "address": "서울특별시 종로구 관훈동 144",
    "lat": 37.57511636763684,
    "lng": 126.98335065136158,
    "hasTrashBag": true,
    "hasSpecialBag": false,
    "dataReferenceDate": "2026-03-10",
    "businessStatus": "영업",
    "hasLargeWasteSticker": false,
    "adminVerified": false
  },
  {
    "name": "GS25 혜화경찰서",
    "roadAddress": "서울특별시 종로구 창경궁로 112-11",
    "address": "서울특별시 종로구 인의동 28-36",
    "lat": 37.5724978895838,
    "lng": 126.99849162125578,
    "hasTrashBag": true,
    "hasSpecialBag": false,
    "dataReferenceDate": "2026-03-25",
    "businessStatus": "영업",
    "hasLargeWasteSticker": false,
    "adminVerified": false
  },
  {
    "name": "한일상회",
    "roadAddress": "서울특별시 종로구 창경궁로 88",
    "address": "서울특별시 종로구 예지동 2-1",
    "lat": 37.5701125140082,
    "lng": 126.999707163125,
    "hasTrashBag": true,
    "hasSpecialBag": false,
    "dataReferenceDate": "2026-03-25",
    "businessStatus": "영업",
    "hasLargeWasteSticker": false,
    "adminVerified": false
  },
  {
    "name": "cu 창덕궁",
    "roadAddress": "서울특별시 종로구 율곡로6길 15",
    "address": "서울특별시 종로구 운니동 16",
    "lat": 37.576566407371,
    "lng": 126.989419831377,
    "hasTrashBag": true,
    "hasSpecialBag": false,
    "dataReferenceDate": "2026-03-10",
    "businessStatus": "영업",
    "hasLargeWasteSticker": false,
    "adminVerified": false
  },
  {
    "name": "cu종로2가점",
    "roadAddress": "서울특별시 종로구 종로16길 11",
    "address": "서울특별시 종로구 관수동 4-4",
    "lat": 37.5695716479929,
    "lng": 126.988714485784,
    "hasTrashBag": true,
    "hasSpecialBag": false,
    "dataReferenceDate": "2026-03-24",
    "businessStatus": "영업",
    "hasLargeWasteSticker": false,
    "adminVerified": false
  },
  {
    "name": "cu종로대로점",
    "roadAddress": "서울특별시 종로구 종로 112",
    "address": "서울특별시 종로구 종로3가 108",
    "lat": 37.5700536144088,
    "lng": 126.989978353518,
    "hasTrashBag": true,
    "hasSpecialBag": false,
    "dataReferenceDate": "2026-03-04",
    "businessStatus": "영업",
    "hasLargeWasteSticker": false,
    "adminVerified": false
  },
  {
    "name": "gs25 인사동마루",
    "roadAddress": "서울특별시 종로구 인사동길 35-4",
    "address": "서울특별시 종로구 관훈동 192-15",
    "lat": 37.5735538862116,
    "lng": 126.984865059281,
    "hasTrashBag": true,
    "hasSpecialBag": false,
    "dataReferenceDate": "2026-03-25",
    "businessStatus": "영업",
    "hasLargeWasteSticker": false,
    "adminVerified": false
  },
  {
    "name": "GS25 종로익선",
    "roadAddress": "서울특별시 종로구 삼일대로30길 23",
    "address": "서울특별시 종로구 익선동 34",
    "lat": 37.57425431855068,
    "lng": 126.988911882347,
    "hasTrashBag": true,
    "hasSpecialBag": true,
    "dataReferenceDate": "2026-03-25",
    "businessStatus": "영업",
    "hasLargeWasteSticker": false,
    "adminVerified": false
  },
  {
    "name": "GS25 종로청진",
    "roadAddress": "서울특별시 종로구 종로 19",
    "address": "서울특별시 종로구 종로1가 24",
    "lat": 37.5708444878121,
    "lng": 126.979923668151,
    "hasTrashBag": true,
    "hasSpecialBag": false,
    "dataReferenceDate": "2026-03-23",
    "businessStatus": "영업",
    "hasLargeWasteSticker": false,
    "adminVerified": false
  },
  {
    "name": "(주)코리아세븐 New Wave 종각점",
    "roadAddress": "서울특별시 종로구 삼일대로 393",
    "address": "서울특별시 종로구 관철동 6-3",
    "lat": 37.5696744077038,
    "lng": 126.987390656141,
    "hasTrashBag": true,
    "hasSpecialBag": false,
    "dataReferenceDate": "2026-03-25",
    "businessStatus": "영업",
    "hasLargeWasteSticker": false,
    "adminVerified": false
  },
  {
    "name": "씨스페이스 봉익점",
    "roadAddress": "서울특별시 종로구 돈화문로6나길 28",
    "address": "서울특별시 종로구 봉익동 117-2",
    "lat": 37.5720767495046,
    "lng": 126.993045988655,
    "hasTrashBag": true,
    "hasSpecialBag": false,
    "dataReferenceDate": "2026-03-24",
    "businessStatus": "영업",
    "hasLargeWasteSticker": false,
    "adminVerified": false
  },
  {
    "name": "㈜코리아세븐 종로삼일점",
    "roadAddress": "서울특별시 종로구 종로14길 32",
    "address": "서울특별시 종로구 관철동 11-3",
    "lat": 37.5685787247612,
    "lng": 126.986730471584,
    "hasTrashBag": true,
    "hasSpecialBag": false,
    "dataReferenceDate": "2026-03-04",
    "businessStatus": "영업",
    "hasLargeWasteSticker": false,
    "adminVerified": false
  },
  {
    "name": "하모니마트",
    "roadAddress": "서울특별시 종로구 인사동5길 38",
    "address": "서울특별시 종로구 관훈동 198-42",
    "lat": 37.5725709989957,
    "lng": 126.984238926656,
    "hasTrashBag": true,
    "hasSpecialBag": true,
    "dataReferenceDate": "2026-03-25",
    "businessStatus": "영업",
    "hasLargeWasteSticker": false,
    "adminVerified": false
  },
  {
    "name": "세븐일레븐 종로이비스점",
    "roadAddress": "서울특별시 종로구 삼일대로30길 32",
    "address": "서울특별시 종로구 익선동 132-2",
    "lat": 37.5741341661683,
    "lng": 126.989349877274,
    "hasTrashBag": true,
    "hasSpecialBag": false,
    "dataReferenceDate": "2026-03-25",
    "businessStatus": "영업",
    "hasLargeWasteSticker": false,
    "adminVerified": false
  },
  {
    "name": "세븐일레븐 종로뉴익선",
    "roadAddress": "서울특별시 종로구 돈화문로 66",
    "address": "서울특별시 종로구 와룡동 68",
    "lat": 37.5744231771637,
    "lng": 126.99119548265,
    "hasTrashBag": true,
    "hasSpecialBag": true,
    "dataReferenceDate": "2026-03-25",
    "businessStatus": "영업",
    "hasLargeWasteSticker": false,
    "adminVerified": false
  },
  {
    "name": "CU 피카디리점",
    "roadAddress": "서울특별시 종로구 종로 127-2",
    "address": "서울특별시 종로구 종로3가 20",
    "lat": 37.570693640064,
    "lng": 126.991773676246,
    "hasTrashBag": true,
    "hasSpecialBag": false,
    "dataReferenceDate": "2026-03-25",
    "businessStatus": "영업",
    "hasLargeWasteSticker": false,
    "adminVerified": false
  },
  {
    "name": "㈜코리아세븐 종로두산점",
    "roadAddress": "서울특별시 종로구 삼봉로 81",
    "address": "서울특별시 종로구 수송동 58",
    "lat": 37.572417668886,
    "lng": 126.98186268487613,
    "hasTrashBag": true,
    "hasSpecialBag": false,
    "dataReferenceDate": "2026-03-23",
    "businessStatus": "영업",
    "hasLargeWasteSticker": false,
    "adminVerified": false
  },
  {
    "name": "씨유 종로으뜸점",
    "roadAddress": "서울특별시 종로구 수표로18길 19",
    "address": "서울특별시 종로구 관수동 26",
    "lat": 37.5694319855318,
    "lng": 126.990686468497,
    "hasTrashBag": true,
    "hasSpecialBag": true,
    "dataReferenceDate": "2026-03-25",
    "businessStatus": "영업",
    "hasLargeWasteSticker": false,
    "adminVerified": false
  },
  {
    "name": "CU종로세운상가점",
    "roadAddress": "서울특별시 종로구 종로 154-1",
    "address": "서울특별시 종로구 종로3가 171",
    "lat": 37.57028809227075,
    "lng": 126.99476186385785,
    "hasTrashBag": true,
    "hasSpecialBag": false,
    "dataReferenceDate": "2026-03-25",
    "businessStatus": "영업",
    "hasLargeWasteSticker": false,
    "adminVerified": false
  },
  {
    "name": "대지상회",
    "roadAddress": "서울특별시 종로구 삼일대로 428",
    "address": "서울특별시 종로구 낙원동 288",
    "lat": 37.5727635233966,
    "lng": 126.987902476529,
    "hasTrashBag": true,
    "hasSpecialBag": false,
    "dataReferenceDate": "2026-03-25",
    "businessStatus": "영업",
    "hasLargeWasteSticker": false,
    "adminVerified": false
  },
  {
    "name": "지에스25 종로94빌딩점",
    "roadAddress": "서울특별시 종로구 삼봉로 94",
    "address": "서울특별시 종로구 공평동 144",
    "lat": 37.5718380251248,
    "lng": 126.982234115393,
    "hasTrashBag": true,
    "hasSpecialBag": false,
    "dataReferenceDate": "2026-03-24",
    "businessStatus": "영업",
    "hasLargeWasteSticker": false,
    "adminVerified": false
  },
  {
    "name": "이마트24 종로3가점",
    "roadAddress": "서울특별시 종로구 율곡로8길 101",
    "address": "서울특별시 종로구 묘동 18",
    "lat": 37.5728241431036,
    "lng": 126.991917205462,
    "hasTrashBag": true,
    "hasSpecialBag": false,
    "dataReferenceDate": "2026-03-25",
    "businessStatus": "영업",
    "hasLargeWasteSticker": false,
    "adminVerified": false
  },
  {
    "name": "씨스페이스 창경궁로점",
    "roadAddress": "서울특별시 종로구 창경궁로 137",
    "address": "서울특별시 종로구 원남동 251",
    "lat": 37.5746368300317,
    "lng": 126.997294123203,
    "hasTrashBag": true,
    "hasSpecialBag": false,
    "dataReferenceDate": "2026-03-25",
    "businessStatus": "영업",
    "hasLargeWasteSticker": false,
    "adminVerified": false
  },
  {
    "name": "세븐일레븐 세종로점",
    "roadAddress": "서울특별시 종로구 종로1길 42-1",
    "address": "서울특별시 종로구 수송동 135",
    "lat": 37.5742266028277,
    "lng": 126.978667692214,
    "hasTrashBag": true,
    "hasSpecialBag": false,
    "dataReferenceDate": "2026-03-16",
    "businessStatus": "영업",
    "hasLargeWasteSticker": false,
    "adminVerified": false
  },
  {
    "name": "㈜오피스디포코리아 종로구청점",
    "roadAddress": "서울특별시 종로구 종로5길 58",
    "address": "서울특별시 종로구 수송동 80-6",
    "lat": 37.5729095481038,
    "lng": 126.980337085397,
    "hasTrashBag": true,
    "hasSpecialBag": false,
    "dataReferenceDate": "2026-03-23",
    "businessStatus": "영업",
    "hasLargeWasteSticker": false,
    "adminVerified": false
  },
  {
    "name": "종로식품",
    "roadAddress": "서울특별시 종로구 종로39길 16",
    "address": "서울특별시 종로구 종로6가 239-43",
    "lat": 37.5719561526663,
    "lng": 127.006115653262,
    "hasTrashBag": true,
    "hasSpecialBag": false,
    "dataReferenceDate": "2026-03-19",
    "businessStatus": "영업",
    "hasLargeWasteSticker": false,
    "adminVerified": false
  },
  {
    "name": "gs25 종로광장시장점",
    "roadAddress": "서울특별시 종로구 동호로 401-2",
    "address": "서울특별시 종로구 종로5가 398-1",
    "lat": 37.5702714377934,
    "lng": 127.001694767302,
    "hasTrashBag": true,
    "hasSpecialBag": false,
    "dataReferenceDate": "2026-03-25",
    "businessStatus": "영업",
    "hasLargeWasteSticker": false,
    "adminVerified": false
  },
  {
    "name": "대성철물",
    "roadAddress": "서울특별시 종로구 종로31길 28",
    "address": "서울특별시 종로구 연지동 246",
    "lat": 37.5721421860405,
    "lng": 126.999724134971,
    "hasTrashBag": true,
    "hasSpecialBag": false,
    "dataReferenceDate": "2026-03-25",
    "businessStatus": "영업",
    "hasLargeWasteSticker": false,
    "adminVerified": false
  },
  {
    "name": "㈜코리아세븐 뉴종로6가점",
    "roadAddress": "서울특별시 종로구 종로41길 2",
    "address": "서울특별시 종로구 종로6가 126-1",
    "lat": 37.5713539751172,
    "lng": 127.006887044466,
    "hasTrashBag": true,
    "hasSpecialBag": false,
    "dataReferenceDate": "2026-03-27",
    "businessStatus": "영업",
    "hasLargeWasteSticker": false,
    "adminVerified": false
  },
  {
    "name": "그린마트충신",
    "roadAddress": "서울특별시 종로구 율곡로19가길 3",
    "address": "서울특별시 종로구 충신동 5-39",
    "lat": 37.5759311830241,
    "lng": 127.005686820634,
    "hasTrashBag": true,
    "hasSpecialBag": true,
    "dataReferenceDate": "2026-03-20",
    "businessStatus": "영업",
    "hasLargeWasteSticker": false,
    "adminVerified": false
  },
  {
    "name": "모든오피스",
    "roadAddress": "서울특별시 종로구 종로35길 35",
    "address": "서울특별시 종로구 효제동 268-1",
    "lat": 37.5728466166612,
    "lng": 127.003691668065,
    "hasTrashBag": true,
    "hasSpecialBag": true,
    "dataReferenceDate": "2026-03-20",
    "businessStatus": "영업",
    "hasLargeWasteSticker": false,
    "adminVerified": false
  },
  {
    "name": "보령식품",
    "roadAddress": "서울특별시 종로구 종로31길 16",
    "address": "서울특별시 종로구 종로5가 116",
    "lat": 37.571629339934,
    "lng": 127.00001256496,
    "hasTrashBag": true,
    "hasSpecialBag": false,
    "dataReferenceDate": "2026-03-20",
    "businessStatus": "영업",
    "hasLargeWasteSticker": false,
    "adminVerified": false
  },
  {
    "name": "세븐일레븐 종로충신점",
    "roadAddress": "서울특별시 종로구 율곡로 255",
    "address": "서울특별시 종로구 충신동 27-23",
    "lat": 37.5743689058041,
    "lng": 127.006511944318,
    "hasTrashBag": true,
    "hasSpecialBag": false,
    "dataReferenceDate": "2026-03-19",
    "businessStatus": "영업",
    "hasLargeWasteSticker": false,
    "adminVerified": false
  },
  {
    "name": "씨유-종로공원점",
    "roadAddress": "서울특별시 종로구 율곡로 271",
    "address": "서울특별시 종로구 종로6가 12-9",
    "lat": 37.5732025034686,
    "lng": 127.007591999269,
    "hasTrashBag": true,
    "hasSpecialBag": false,
    "dataReferenceDate": "2026-03-13",
    "businessStatus": "영업",
    "hasLargeWasteSticker": false,
    "adminVerified": false
  },
  {
    "name": "씨유-포레스트힐점",
    "roadAddress": "서울특별시 종로구 대학로 33",
    "address": "서울특별시 종로구 효제동 65-2",
    "lat": 37.5740772390143,
    "lng": 127.001830242593,
    "hasTrashBag": true,
    "hasSpecialBag": false,
    "dataReferenceDate": "2026-03-12",
    "businessStatus": "영업",
    "hasLargeWasteSticker": false,
    "adminVerified": false
  },
  {
    "name": "씨유-종로햇살점",
    "roadAddress": "서울특별시 종로구 대학로 4-1",
    "address": "서울특별시 종로구 효제동 248-1",
    "lat": 37.5715166960571,
    "lng": 127.00214464306,
    "hasTrashBag": true,
    "hasSpecialBag": false,
    "dataReferenceDate": "2026-03-20",
    "businessStatus": "영업",
    "hasLargeWasteSticker": false,
    "adminVerified": false
  },
  {
    "name": "육가식품",
    "roadAddress": "서울특별시 종로구 종로40가길 3",
    "address": "서울특별시 종로구 종로5가 281-2",
    "lat": 37.5702787501304,
    "lng": 127.006484534403,
    "hasTrashBag": true,
    "hasSpecialBag": false,
    "dataReferenceDate": "2026-03-12",
    "businessStatus": "영업",
    "hasLargeWasteSticker": false,
    "adminVerified": false
  },
  {
    "name": "이마트24 종로BS타워점",
    "roadAddress": "서울특별시 종로구 종로35길 12",
    "address": "서울특별시 종로구 효제동 193-1",
    "lat": 37.5717984746063,
    "lng": 127.004129353368,
    "hasTrashBag": true,
    "hasSpecialBag": false,
    "dataReferenceDate": "2026-03-20",
    "businessStatus": "영업",
    "hasLargeWasteSticker": false,
    "adminVerified": false
  },
  {
    "name": "원광상사",
    "roadAddress": "서울특별시 종로구 종로35길 18",
    "address": "서울특별시 종로구 효제동 201",
    "lat": 37.5719918326306,
    "lng": 127.003999525492,
    "hasTrashBag": true,
    "hasSpecialBag": false,
    "dataReferenceDate": "2026-03-20",
    "businessStatus": "영업",
    "hasLargeWasteSticker": false,
    "adminVerified": false
  },
  {
    "name": "종로문구상사",
    "roadAddress": "서울특별시 종로구 종로41길 5",
    "address": "서울특별시 종로구 종로6가 135-1",
    "lat": 37.571569153632,
    "lng": 127.006519624385,
    "hasTrashBag": true,
    "hasSpecialBag": false,
    "dataReferenceDate": "2026-03-12",
    "businessStatus": "영업",
    "hasLargeWasteSticker": false,
    "adminVerified": false
  },
  {
    "name": "충신철물",
    "roadAddress": "서울특별시 종로구 종로41길 41",
    "address": "서울특별시 종로구 종로6가 225",
    "lat": 37.5730264475724,
    "lng": 127.006059367205,
    "hasTrashBag": true,
    "hasSpecialBag": true,
    "dataReferenceDate": "2026-03-19",
    "businessStatus": "영업",
    "hasLargeWasteSticker": false,
    "adminVerified": false
  },
  {
    "name": "하영슈퍼",
    "roadAddress": "서울특별시 종로구 종로36길 8",
    "address": "서울특별시 종로구 종로5가 214-6",
    "lat": 37.570553490454,
    "lng": 127.003799770459,
    "hasTrashBag": true,
    "hasSpecialBag": false,
    "dataReferenceDate": "2026-03-20",
    "businessStatus": "영업",
    "hasLargeWasteSticker": false,
    "adminVerified": false
  },
  {
    "name": "GS25 종로효제",
    "roadAddress": "서울특별시 종로구 김상옥로 56",
    "address": "서울특별시 종로구 효제동 133-2",
    "lat": 37.5733485540483,
    "lng": 127.00390598128,
    "hasTrashBag": true,
    "hasSpecialBag": false,
    "dataReferenceDate": "2026-03-12",
    "businessStatus": "영업",
    "hasLargeWasteSticker": false,
    "adminVerified": false
  },
  {
    "name": "신진슈퍼",
    "roadAddress": "서울특별시 종로구 종로40가길 39",
    "address": "서울특별시 종로구 종로5가 225-10",
    "lat": 37.5703745301928,
    "lng": 127.004446449781,
    "hasTrashBag": true,
    "hasSpecialBag": false,
    "dataReferenceDate": "2026-03-12",
    "businessStatus": "영업",
    "hasLargeWasteSticker": false,
    "adminVerified": false
  },
  {
    "name": "㈜코리아세븐 동대문점",
    "roadAddress": "서울특별시 종로구 율곡로 294",
    "address": "서울특별시 종로구 종로6가 76",
    "lat": 37.5714432390834,
    "lng": 127.008632898634,
    "hasTrashBag": true,
    "hasSpecialBag": false,
    "dataReferenceDate": "2026-03-20",
    "businessStatus": "영업",
    "hasLargeWasteSticker": false,
    "adminVerified": false
  },
  {
    "name": "씨유 종로충신점",
    "roadAddress": "서울특별시 종로구 김상옥로 61",
    "address": "서울특별시 종로구 충신동 188-10",
    "lat": 37.5736238690628,
    "lng": 127.004702024104,
    "hasTrashBag": true,
    "hasSpecialBag": false,
    "dataReferenceDate": "2026-03-19",
    "businessStatus": "영업",
    "hasLargeWasteSticker": false,
    "adminVerified": false
  },
  {
    "name": "㈜코리아세븐-종로태양점",
    "roadAddress": "서울특별시 종로구 율곡로 197",
    "address": "서울특별시 종로구 연건동 208",
    "lat": 37.5762013462503,
    "lng": 127.000651493401,
    "hasTrashBag": true,
    "hasSpecialBag": false,
    "dataReferenceDate": "2026-03-06",
    "businessStatus": "영업",
    "hasLargeWasteSticker": false,
    "adminVerified": false
  },
  {
    "name": "락산마트",
    "roadAddress": "서울특별시 종로구 이화장1나길 17",
    "address": "서울특별시 종로구 이화동 9-818",
    "lat": 37.5776712966261,
    "lng": 127.006938569413,
    "hasTrashBag": true,
    "hasSpecialBag": true,
    "dataReferenceDate": "2026-03-19",
    "businessStatus": "영업",
    "hasLargeWasteSticker": false,
    "adminVerified": false
  },
  {
    "name": "롯데프레시 대학로가맹점",
    "roadAddress": "서울특별시 종로구 동숭길 63",
    "address": "서울특별시 종로구 동숭동 1-91",
    "lat": 37.5810076289824,
    "lng": 127.004125899517,
    "hasTrashBag": true,
    "hasSpecialBag": true,
    "dataReferenceDate": "2026-03-19",
    "businessStatus": "영업",
    "hasLargeWasteSticker": false,
    "adminVerified": false
  },
  {
    "name": "세븐일레븐 대학로카페점",
    "roadAddress": "서울특별시 종로구 동숭길 143",
    "address": "서울특별시 종로구 동숭동 1-37",
    "lat": 37.5832648449695,
    "lng": 127.002438547712,
    "hasTrashBag": true,
    "hasSpecialBag": false,
    "dataReferenceDate": "2026-03-12",
    "businessStatus": "영업",
    "hasLargeWasteSticker": false,
    "adminVerified": false
  },
  {
    "name": "코리아세븐 마로니에공원점",
    "roadAddress": "서울특별시 종로구 대학로 116",
    "address": "서울특별시 종로구 동숭동 1-115",
    "lat": 37.5815326869888,
    "lng": 127.002336486451,
    "hasTrashBag": true,
    "hasSpecialBag": false,
    "dataReferenceDate": "2026-03-19",
    "businessStatus": "영업",
    "hasLargeWasteSticker": false,
    "adminVerified": false
  },
  {
    "name": "세븐일레븐 종로율곡점",
    "roadAddress": "서울특별시 종로구 율곡로 218",
    "address": "서울특별시 종로구 이화동 205-2",
    "lat": 37.5759636262179,
    "lng": 127.00305323591,
    "hasTrashBag": true,
    "hasSpecialBag": false,
    "dataReferenceDate": "2026-03-13",
    "businessStatus": "영업",
    "hasLargeWasteSticker": false,
    "adminVerified": false
  },
  {
    "name": "씨유-마로니에점",
    "roadAddress": "서울특별시 종로구 대학로 81",
    "address": "서울특별시 종로구 연건동 78-2",
    "lat": 37.5784184991584,
    "lng": 127.001923066299,
    "hasTrashBag": true,
    "hasSpecialBag": false,
    "dataReferenceDate": "2026-03-18",
    "businessStatus": "영업",
    "hasLargeWasteSticker": false,
    "adminVerified": false
  },
  {
    "name": "씨유-종로동숭점",
    "roadAddress": "서울특별시 종로구 대학로12길 13",
    "address": "서울특별시 종로구 동숭동 1-55",
    "lat": 37.5827394737762,
    "lng": 127.002530008021,
    "hasTrashBag": true,
    "hasSpecialBag": false,
    "dataReferenceDate": "2026-03-20",
    "businessStatus": "영업",
    "hasLargeWasteSticker": false,
    "adminVerified": false
  },
  {
    "name": "씨유-종로율곡점",
    "roadAddress": "서울특별시 종로구 율곡로17길 24",
    "address": "서울특별시 종로구 이화동 80-3",
    "lat": 37.5768959185316,
    "lng": 127.004766077922,
    "hasTrashBag": true,
    "hasSpecialBag": false,
    "dataReferenceDate": "2026-03-20",
    "businessStatus": "영업",
    "hasLargeWasteSticker": false,
    "adminVerified": false
  },
  {
    "name": "씨유홍대대학로캠퍼스점",
    "roadAddress": "서울특별시 종로구 대학로 57",
    "address": "서울특별시 종로구 연건동 128-8",
    "lat": 37.5765585834389,
    "lng": 127.001450046714,
    "hasTrashBag": true,
    "hasSpecialBag": false,
    "dataReferenceDate": "2026-03-24",
    "businessStatus": "영업",
    "hasLargeWasteSticker": false,
    "adminVerified": false
  },
  {
    "name": "GS25 종로방통대2점",
    "roadAddress": "서울특별시 종로구 이화장길 78",
    "address": "서울특별시 종로구 동숭동 192-18",
    "lat": 37.5786825950086,
    "lng": 127.004642454894,
    "hasTrashBag": true,
    "hasSpecialBag": false,
    "dataReferenceDate": "2026-03-06",
    "businessStatus": "영업",
    "hasLargeWasteSticker": false,
    "adminVerified": false
  },
  {
    "name": "지에스25 종로율곡로점",
    "roadAddress": "서울특별시 종로구 율곡로 191-1",
    "address": "서울특별시 종로구 연건동 315",
    "lat": 37.5762585611792,
    "lng": 127.000064187149,
    "hasTrashBag": true,
    "hasSpecialBag": false,
    "dataReferenceDate": "2026-03-25",
    "businessStatus": "영업",
    "hasLargeWasteSticker": false,
    "adminVerified": false
  },
  {
    "name": "(주)코리아세븐(명륜카페점)",
    "roadAddress": "서울특별시 종로구 대학로11길 29",
    "address": "서울특별시 종로구 명륜4가 155",
    "lat": 37.5820692517768,
    "lng": 126.99991305192,
    "hasTrashBag": true,
    "hasSpecialBag": false,
    "dataReferenceDate": "2026-03-25",
    "businessStatus": "영업",
    "hasLargeWasteSticker": false,
    "adminVerified": false
  },
  {
    "name": "(주)코리아세븐(종로성대)-세븐일레븐",
    "roadAddress": "서울특별시 종로구 성균관로 16",
    "address": "서울특별시 종로구 명륜2가 143-8",
    "lat": 37.5842901776051,
    "lng": 126.99767282438,
    "hasTrashBag": true,
    "hasSpecialBag": false,
    "dataReferenceDate": "2026-03-12",
    "businessStatus": "영업",
    "hasLargeWasteSticker": false,
    "adminVerified": false
  },
  {
    "name": "CU(성대원룸촌점)",
    "roadAddress": "서울특별시 종로구 성균관로 36",
    "address": "서울특별시 종로구 명륜1가 97-2",
    "lat": 37.5858794239373,
    "lng": 126.996990854363,
    "hasTrashBag": true,
    "hasSpecialBag": false,
    "dataReferenceDate": "2026-03-19",
    "businessStatus": "영업",
    "hasLargeWasteSticker": false,
    "adminVerified": false
  },
  {
    "name": "CU(성대킹고점)",
    "roadAddress": "서울특별시 종로구 명륜길 21",
    "address": "서울특별시 종로구 명륜3가 1-3",
    "lat": 37.5882582711889,
    "lng": 126.995589170845,
    "hasTrashBag": true,
    "hasSpecialBag": false,
    "dataReferenceDate": "2026-03-25",
    "businessStatus": "영업",
    "hasLargeWasteSticker": false,
    "adminVerified": false
  },
  {
    "name": "CU(혜화한아름)",
    "roadAddress": "서울특별시 종로구 혜화로 47",
    "address": "서울특별시 종로구 명륜1가 31-3",
    "lat": 37.5896751593578,
    "lng": 126.998916208716,
    "hasTrashBag": true,
    "hasSpecialBag": true,
    "dataReferenceDate": "2026-03-20",
    "businessStatus": "영업",
    "hasLargeWasteSticker": false,
    "adminVerified": false
  },
  {
    "name": "㈜무일아이엔씨",
    "roadAddress": "서울특별시 종로구 성균관로 12",
    "address": "서울특별시 종로구 명륜2가 211",
    "lat": 37.583982677102,
    "lng": 126.998153324962,
    "hasTrashBag": true,
    "hasSpecialBag": true,
    "dataReferenceDate": "2026-03-19",
    "businessStatus": "영업",
    "hasLargeWasteSticker": false,
    "adminVerified": false
  },
  {
    "name": "씨유(성대양현관입구점)",
    "roadAddress": "서울특별시 종로구 명륜길 74",
    "address": "서울특별시 종로구 명륜3가 1-114",
    "lat": 37.5899259224481,
    "lng": 126.993697413249,
    "hasTrashBag": true,
    "hasSpecialBag": false,
    "dataReferenceDate": "2026-03-25",
    "businessStatus": "영업",
    "hasLargeWasteSticker": false,
    "adminVerified": false
  },
  {
    "name": "씨유(종로성대점)",
    "roadAddress": "서울특별시 종로구 성균관로5길 6",
    "address": "서울특별시 종로구 명륜2가 137-2",
    "lat": 37.5844386466639,
    "lng": 126.997022047098,
    "hasTrashBag": true,
    "hasSpecialBag": false,
    "dataReferenceDate": "2026-03-19",
    "businessStatus": "영업",
    "hasLargeWasteSticker": false,
    "adminVerified": false
  },
  {
    "name": "이마트24(R종로성대점)",
    "roadAddress": "서울특별시 종로구 성균관로 13",
    "address": "서울특별시 종로구 명륜2가 222",
    "lat": 37.5838744599935,
    "lng": 126.997707594749,
    "hasTrashBag": true,
    "hasSpecialBag": false,
    "dataReferenceDate": "2026-03-05",
    "businessStatus": "영업",
    "hasLargeWasteSticker": false,
    "adminVerified": false
  },
  {
    "name": "이마트24(성대후문점)",
    "roadAddress": "서울특별시 종로구 명륜3길 10",
    "address": "서울특별시 종로구 명륜3가 1-28",
    "lat": 37.5890627135461,
    "lng": 126.994327239246,
    "hasTrashBag": true,
    "hasSpecialBag": false,
    "dataReferenceDate": "2026-03-24",
    "businessStatus": "영업",
    "hasLargeWasteSticker": false,
    "adminVerified": false
  },
  {
    "name": "탑25",
    "roadAddress": "서울특별시 종로구 명륜길 40",
    "address": "서울특별시 종로구 명륜3가 1-204",
    "lat": 37.5889941817397,
    "lng": 126.995078713023,
    "hasTrashBag": true,
    "hasSpecialBag": false,
    "dataReferenceDate": "2026-03-24",
    "businessStatus": "영업",
    "hasLargeWasteSticker": false,
    "adminVerified": false
  },
  {
    "name": "탑할인마트",
    "roadAddress": "서울특별시 종로구 명륜길 8",
    "address": "서울특별시 종로구 명륜1가 10-16",
    "lat": 37.5881207166076,
    "lng": 126.996382984088,
    "hasTrashBag": true,
    "hasSpecialBag": true,
    "dataReferenceDate": "2026-03-19",
    "businessStatus": "영업",
    "hasLargeWasteSticker": false,
    "adminVerified": false
  },
  {
    "name": "현대전기철물",
    "roadAddress": "서울특별시 종로구 대학로11길 49",
    "address": "서울특별시 종로구 명륜4가 188-24",
    "lat": 37.582607231492,
    "lng": 126.999083981801,
    "hasTrashBag": true,
    "hasSpecialBag": true,
    "dataReferenceDate": "2026-03-19",
    "businessStatus": "영업",
    "hasLargeWasteSticker": false,
    "adminVerified": false
  },
  {
    "name": "홈플러스(주)명륜",
    "roadAddress": "서울특별시 종로구 혜화로 17",
    "address": "서울특별시 종로구 명륜1가 36-13",
    "lat": 37.5871099480928,
    "lng": 126.999784539905,
    "hasTrashBag": true,
    "hasSpecialBag": false,
    "dataReferenceDate": "2026-03-19",
    "businessStatus": "영업",
    "hasLargeWasteSticker": false,
    "adminVerified": false
  },
  {
    "name": "홈플러스(주)명륜2점",
    "roadAddress": "서울특별시 종로구 혜화로3길 5",
    "address": "서울특별시 종로구 명륜2가 237",
    "lat": 37.58520191485739,
    "lng": 127.00039909482417,
    "hasTrashBag": true,
    "hasSpecialBag": false,
    "dataReferenceDate": "2026-03-19",
    "businessStatus": "영업",
    "hasLargeWasteSticker": false,
    "adminVerified": false
  },
  {
    "name": "GS25명륜아남점",
    "roadAddress": "서울특별시 종로구 혜화로 9",
    "address": "서울특별시 종로구 명륜1가 46-18",
    "lat": 37.5864415015652,
    "lng": 127.00017345345,
    "hasTrashBag": true,
    "hasSpecialBag": false,
    "dataReferenceDate": "2026-03-24",
    "businessStatus": "영업",
    "hasLargeWasteSticker": false,
    "adminVerified": false
  },
  {
    "name": "(주)코리아세븐(혜화점)",
    "roadAddress": "서울특별시 종로구 창경궁로 273",
    "address": "서울특별시 종로구 혜화동 111-7",
    "lat": 37.585795938765,
    "lng": 127.000590551814,
    "hasTrashBag": true,
    "hasSpecialBag": true,
    "dataReferenceDate": "2026-03-17",
    "businessStatus": "영업",
    "hasLargeWasteSticker": false,
    "adminVerified": false
  },
  {
    "name": "㈜코리아세븐 동대문역점",
    "roadAddress": "서울특별시 종로구 종로 313-1, 1층",
    "address": "서울특별시 종로구 창신동 154-1",
    "lat": 37.5723320782133,
    "lng": 127.012564399161,
    "hasTrashBag": true,
    "hasSpecialBag": false,
    "dataReferenceDate": "2026-03-13",
    "businessStatus": "영업",
    "hasLargeWasteSticker": false,
    "adminVerified": false
  },
  {
    "name": "반월식품",
    "roadAddress": "서울특별시 종로구 종로54길 11-1",
    "address": "서울특별시 종로구 창신동 329-10",
    "lat": 37.5718247311683,
    "lng": 127.014129164956,
    "hasTrashBag": true,
    "hasSpecialBag": false,
    "dataReferenceDate": "2026-03-20",
    "businessStatus": "영업",
    "hasLargeWasteSticker": false,
    "adminVerified": false
  },
  {
    "name": "씨스페이스 정윤점",
    "roadAddress": "서울특별시 종로구 종로44길 80",
    "address": "서울특별시 종로구 창신동 407-5",
    "lat": 37.5706329190558,
    "lng": 127.01466809394,
    "hasTrashBag": true,
    "hasSpecialBag": false,
    "dataReferenceDate": "2026-03-23",
    "businessStatus": "영업",
    "hasLargeWasteSticker": false,
    "adminVerified": false
  },
  {
    "name": "씨유-종로청계점",
    "roadAddress": "서울특별시 종로구 청계천로 331",
    "address": "서울특별시 종로구 창신동 436-64",
    "lat": 37.570073352301726,
    "lng": 127.01433054846318,
    "hasTrashBag": true,
    "hasSpecialBag": false,
    "dataReferenceDate": "2026-03-13",
    "businessStatus": "영업",
    "hasLargeWasteSticker": false,
    "adminVerified": false
  },
  {
    "name": "야채왕우리농산물",
    "roadAddress": "서울특별시 종로구 종로 325",
    "address": "서울특별시 종로구 창신동 198",
    "lat": 37.572752624919,
    "lng": 127.013713331944,
    "hasTrashBag": true,
    "hasSpecialBag": false,
    "dataReferenceDate": "2026-03-19",
    "businessStatus": "영업",
    "hasLargeWasteSticker": false,
    "adminVerified": false
  },
  {
    "name": "이마트24 종로창신점",
    "roadAddress": "서울특별시 종로구 종로50길 29",
    "address": "서울특별시 종로구 창신동 427-12",
    "lat": 37.5706335923883,
    "lng": 127.012749076641,
    "hasTrashBag": true,
    "hasSpecialBag": false,
    "dataReferenceDate": "2026-03-12",
    "businessStatus": "영업",
    "hasLargeWasteSticker": false,
    "adminVerified": false
  },
  {
    "name": "CU 동대문역점",
    "roadAddress": "서울특별시 종로구 종로46길 5",
    "address": "서울특별시 종로구 창신동 464-16",
    "lat": 37.5712594213869,
    "lng": 127.010979004251,
    "hasTrashBag": true,
    "hasSpecialBag": false,
    "dataReferenceDate": "2026-03-13",
    "businessStatus": "영업",
    "hasLargeWasteSticker": false,
    "adminVerified": false
  },
  {
    "name": "GS 창신명성점",
    "roadAddress": "서울특별시 종로구 창신5라길 13",
    "address": "서울특별시 종로구 창신동 138-68",
    "lat": 37.5739097254162,
    "lng": 127.012516666862,
    "hasTrashBag": true,
    "hasSpecialBag": false,
    "dataReferenceDate": "2026-03-19",
    "businessStatus": "영업",
    "hasLargeWasteSticker": false,
    "adminVerified": false
  },
  {
    "name": "그린마트(창신)",
    "roadAddress": "서울특별시 종로구 창신길 140-21",
    "address": "서울특별시 종로구 창신동 601",
    "lat": 37.577540828963215,
    "lng": 127.00956880383804,
    "hasTrashBag": true,
    "hasSpecialBag": false,
    "dataReferenceDate": "2026-03-20",
    "businessStatus": "영업",
    "hasLargeWasteSticker": false,
    "adminVerified": false
  },
  {
    "name": "대진철물",
    "roadAddress": "서울특별시 종로구 창신길 79",
    "address": "서울특별시 종로구 창신동 643",
    "lat": 37.5752205086784,
    "lng": 127.010502773568,
    "hasTrashBag": true,
    "hasSpecialBag": true,
    "dataReferenceDate": "2026-03-20",
    "businessStatus": "영업",
    "hasLargeWasteSticker": false,
    "adminVerified": false
  },
  {
    "name": "롯데마트",
    "roadAddress": "서울특별시 종로구 종로51길 9",
    "address": "서울특별시 종로구 창신동 536-1",
    "lat": 37.572603147674386,
    "lng": 127.01208402681135,
    "hasTrashBag": true,
    "hasSpecialBag": false,
    "dataReferenceDate": "2026-03-19",
    "businessStatus": "영업",
    "hasLargeWasteSticker": false,
    "adminVerified": false
  },
  {
    "name": "양곡직매점",
    "roadAddress": "서울특별시 종로구 창신길 90",
    "address": "서울특별시 종로구 창신동 593-37",
    "lat": 37.5757444251291,
    "lng": 127.010635635523,
    "hasTrashBag": true,
    "hasSpecialBag": true,
    "dataReferenceDate": "2026-03-20",
    "businessStatus": "영업",
    "hasLargeWasteSticker": false,
    "adminVerified": false
  },
  {
    "name": "우리마트 동대문점",
    "roadAddress": "서울특별시 종로구 창신길 20",
    "address": "서울특별시 종로구 창신동 578-5",
    "lat": 37.5723822385791,
    "lng": 127.011010638393,
    "hasTrashBag": true,
    "hasSpecialBag": true,
    "dataReferenceDate": "2026-03-20",
    "businessStatus": "영업",
    "hasLargeWasteSticker": false,
    "adminVerified": false
  },
  {
    "name": "창신 홈마트",
    "roadAddress": "서울특별시 종로구 창신길 54",
    "address": "서울특별시 종로구 창신동 583-83",
    "lat": 37.5740462231571,
    "lng": 127.010715540668,
    "hasTrashBag": true,
    "hasSpecialBag": false,
    "dataReferenceDate": "2026-03-20",
    "businessStatus": "영업",
    "hasLargeWasteSticker": false,
    "adminVerified": false
  },
  {
    "name": "하나마트",
    "roadAddress": "서울특별시 종로구 창신길 95-3",
    "address": "서울특별시 종로구 창신동 633-2",
    "lat": 37.5759301588626,
    "lng": 127.010196315856,
    "hasTrashBag": true,
    "hasSpecialBag": true,
    "dataReferenceDate": "2026-03-20",
    "businessStatus": "영업",
    "hasLargeWasteSticker": false,
    "adminVerified": false
  },
  {
    "name": "씨유 낙산공원점",
    "roadAddress": "서울특별시 종로구 낙산성곽길 2",
    "address": "서울특별시 종로구 창신동 697-3",
    "lat": 37.5717265959979,
    "lng": 127.009860676714,
    "hasTrashBag": true,
    "hasSpecialBag": false,
    "dataReferenceDate": "2026-03-13",
    "businessStatus": "영업",
    "hasLargeWasteSticker": false,
    "adminVerified": false
  },
  {
    "name": "대흥인테리어",
    "roadAddress": "서울특별시 종로구 지봉로 77-3",
    "address": "서울특별시 종로구 창신동 23-74",
    "lat": 37.5769160242983,
    "lng": 127.01523909133,
    "hasTrashBag": true,
    "hasSpecialBag": true,
    "dataReferenceDate": "2026-03-12",
    "businessStatus": "영업",
    "hasLargeWasteSticker": false,
    "adminVerified": false
  },
  {
    "name": "씨유-창신쌍용점",
    "roadAddress": "서울특별시 종로구 낙산길 196",
    "address": "서울특별시 종로구 창신동 703",
    "lat": 37.581324763804076,
    "lng": 127.01217317601149,
    "hasTrashBag": true,
    "hasSpecialBag": true,
    "dataReferenceDate": "2026-03-20",
    "businessStatus": "영업",
    "hasLargeWasteSticker": false,
    "adminVerified": false
  },
  {
    "name": "씨유-창신쌍용1단지점",
    "roadAddress": "서울특별시 종로구 동망산길 19",
    "address": "서울특별시 종로구 창신동 702",
    "lat": 37.58003618145331,
    "lng": 127.01364753384132,
    "hasTrashBag": true,
    "hasSpecialBag": false,
    "dataReferenceDate": "2026-03-19",
    "businessStatus": "영업",
    "hasLargeWasteSticker": false,
    "adminVerified": false
  },
  {
    "name": "동아인테리어",
    "roadAddress": "서울특별시 종로구 지봉로 70-1",
    "address": "서울특별시 종로구 숭인동 61-118",
    "lat": 37.5763935664383,
    "lng": 127.015706861335,
    "hasTrashBag": true,
    "hasSpecialBag": true,
    "dataReferenceDate": "2026-03-13",
    "businessStatus": "영업",
    "hasLargeWasteSticker": false,
    "adminVerified": false
  },
  {
    "name": "씨유 동묘역점",
    "roadAddress": "서울특별시 종로구 종로 351",
    "address": "서울특별시 종로구 숭인동 103-1",
    "lat": 37.5734979984199,
    "lng": 127.016666647647,
    "hasTrashBag": true,
    "hasSpecialBag": false,
    "dataReferenceDate": "2026-03-12",
    "businessStatus": "영업",
    "hasLargeWasteSticker": false,
    "adminVerified": false
  },
  {
    "name": "홈플러스㈜ 익스프레스 숭인점",
    "roadAddress": "서울특별시 종로구 종로 347",
    "address": "서울특별시 종로구 숭인동 76",
    "lat": 37.5740562569508,
    "lng": 127.016000015149,
    "hasTrashBag": true,
    "hasSpecialBag": false,
    "dataReferenceDate": "2026-03-19",
    "businessStatus": "영업",
    "hasLargeWasteSticker": false,
    "adminVerified": false
  },
  {
    "name": "GS25 창신역점",
    "roadAddress": "서울특별시 종로구 지봉로 92",
    "address": "서울특별시 종로구 숭인동 53-21",
    "lat": 37.5782410770558,
    "lng": 127.015541965953,
    "hasTrashBag": true,
    "hasSpecialBag": false,
    "dataReferenceDate": "2026-03-13",
    "businessStatus": "영업",
    "hasLargeWasteSticker": false,
    "adminVerified": false
  },
  {
    "name": "금릉슈퍼",
    "roadAddress": "서울특별시 종로구 종로57길 11",
    "address": "서울특별시 종로구 숭인동 96-2",
    "lat": 37.5737715298931,
    "lng": 127.016741308118,
    "hasTrashBag": true,
    "hasSpecialBag": false,
    "dataReferenceDate": "2026-03-19",
    "businessStatus": "영업",
    "hasLargeWasteSticker": false,
    "adminVerified": false
  },
  {
    "name": "대박마트",
    "roadAddress": "서울특별시 종로구 숭인동길 32",
    "address": "서울특별시 종로구 숭인동 1080",
    "lat": 37.5762858847953,
    "lng": 127.021993785357,
    "hasTrashBag": true,
    "hasSpecialBag": true,
    "dataReferenceDate": "2026-03-20",
    "businessStatus": "영업",
    "hasLargeWasteSticker": false,
    "adminVerified": false
  },
  {
    "name": "미래식품",
    "roadAddress": "서울특별시 종로구 종로65길 31-1",
    "address": "서울특별시 종로구 숭인동 178-59",
    "lat": 37.5757635118466,
    "lng": 127.019825546864,
    "hasTrashBag": true,
    "hasSpecialBag": false,
    "dataReferenceDate": "2026-02-27",
    "businessStatus": "영업",
    "hasLargeWasteSticker": false,
    "adminVerified": false
  },
  {
    "name": "방가네마트",
    "roadAddress": "서울특별시 종로구 숭인동길 18",
    "address": "서울특별시 종로구 숭인동 1069",
    "lat": 37.5758557819692,
    "lng": 127.021821701623,
    "hasTrashBag": true,
    "hasSpecialBag": false,
    "dataReferenceDate": "2026-03-06",
    "businessStatus": "영업",
    "hasLargeWasteSticker": false,
    "adminVerified": false
  },
  {
    "name": "세븐일레븐 동묘중앙점",
    "roadAddress": "서울특별시 종로구 종로62길 17",
    "address": "서울특별시 종로구 숭인동 217-26",
    "lat": 37.5732101490959,
    "lng": 127.019487533277,
    "hasTrashBag": true,
    "hasSpecialBag": false,
    "dataReferenceDate": "2026-03-20",
    "businessStatus": "영업",
    "hasLargeWasteSticker": false,
    "adminVerified": false
  },
  {
    "name": "세븐일레븐-종로향기점",
    "roadAddress": "서울특별시 종로구 난계로29길 28",
    "address": "서울특별시 종로구 숭인동 200-10",
    "lat": 37.574281504827,
    "lng": 127.021654609122,
    "hasTrashBag": true,
    "hasSpecialBag": false,
    "dataReferenceDate": "2026-03-20",
    "businessStatus": "영업",
    "hasLargeWasteSticker": false,
    "adminVerified": false
  },
  {
    "name": "세븐일레븐 종로숭인점",
    "roadAddress": "서울특별시 종로구 숭인동길 70-13",
    "address": "서울특별시 종로구 숭인동 390-1",
    "lat": 37.5782779656859,
    "lng": 127.022563807042,
    "hasTrashBag": true,
    "hasSpecialBag": false,
    "dataReferenceDate": "2026-03-20",
    "businessStatus": "영업",
    "hasLargeWasteSticker": false,
    "adminVerified": false
  },
  {
    "name": "숭인문구",
    "roadAddress": "서울특별시 종로구 종로58길 39",
    "address": "서울특별시 종로구 숭인동 237-6",
    "lat": 37.5718389856421,
    "lng": 127.018550461258,
    "hasTrashBag": true,
    "hasSpecialBag": true,
    "dataReferenceDate": "2026-03-13",
    "businessStatus": "영업",
    "hasLargeWasteSticker": false,
    "adminVerified": false
  },
  {
    "name": "싱싱야채",
    "roadAddress": "서울특별시 종로구 숭인동길 58",
    "address": "서울특별시 종로구 숭인동 408",
    "lat": 37.5775619541863,
    "lng": 127.022041481133,
    "hasTrashBag": true,
    "hasSpecialBag": true,
    "dataReferenceDate": "2026-03-20",
    "businessStatus": "영업",
    "hasLargeWasteSticker": false,
    "adminVerified": false
  },
  {
    "name": "씨유-동묘토성점",
    "roadAddress": "서울특별시 종로구 지봉로4길 21",
    "address": "서울특별시 종로구 숭인동 318-1",
    "lat": 37.5713113286323,
    "lng": 127.016981867792,
    "hasTrashBag": true,
    "hasSpecialBag": false,
    "dataReferenceDate": "2026-03-06",
    "businessStatus": "영업",
    "hasLargeWasteSticker": false,
    "adminVerified": false
  },
  {
    "name": "씨유 뉴숭인센터",
    "roadAddress": "서울특별시 종로구 종로56길 16",
    "address": "서울특별시 종로구 숭인동 296-46",
    "lat": 37.5724078260645,
    "lng": 127.016441704652,
    "hasTrashBag": true,
    "hasSpecialBag": false,
    "dataReferenceDate": "2026-02-26",
    "businessStatus": "영업",
    "hasLargeWasteSticker": false,
    "adminVerified": false
  },
  {
    "name": "씨유-숭인파라빌",
    "roadAddress": "서울특별시 종로구 난계로 251",
    "address": "서울특별시 종로구 숭인동 1388",
    "lat": 37.5740345051674,
    "lng": 127.02280794747,
    "hasTrashBag": true,
    "hasSpecialBag": false,
    "dataReferenceDate": "2026-03-19",
    "businessStatus": "영업",
    "hasLargeWasteSticker": false,
    "adminVerified": false
  },
  {
    "name": "씨유-숭인한양점",
    "roadAddress": "서울특별시 종로구 숭인동1길 8-1",
    "address": "서울특별시 종로구 숭인동 741",
    "lat": 37.5767069349593,
    "lng": 127.02141961757,
    "hasTrashBag": true,
    "hasSpecialBag": false,
    "dataReferenceDate": "2026-03-20",
    "businessStatus": "영업",
    "hasLargeWasteSticker": false,
    "adminVerified": false
  },
  {
    "name": "씨유-숭인2동점",
    "roadAddress": "서울특별시 종로구 종로 383",
    "address": "서울특별시 종로구 숭인동 178-89",
    "lat": 37.5745510412021,
    "lng": 127.019838583294,
    "hasTrashBag": true,
    "hasSpecialBag": false,
    "dataReferenceDate": "2026-03-20",
    "businessStatus": "영업",
    "hasLargeWasteSticker": false,
    "adminVerified": false
  },
  {
    "name": "씨유-종로숭인점",
    "roadAddress": "서울특별시 종로구 지봉로10길 2",
    "address": "서울특별시 종로구 숭인동 63-1",
    "lat": 37.5760425239817,
    "lng": 127.015819312893,
    "hasTrashBag": true,
    "hasSpecialBag": false,
    "dataReferenceDate": "2026-03-12",
    "businessStatus": "영업",
    "hasLargeWasteSticker": false,
    "adminVerified": false
  },
  {
    "name": "세븐일레븐 숭인IBC호텔점",
    "roadAddress": "서울특별시 종로구 난계로 241",
    "address": "서울특별시 종로구 숭인동 1396",
    "lat": 37.5732544172469,
    "lng": 127.022842009254,
    "hasTrashBag": true,
    "hasSpecialBag": false,
    "dataReferenceDate": "2026-03-20",
    "businessStatus": "영업",
    "hasLargeWasteSticker": false,
    "adminVerified": false
  },
  {
    "name": "유나슈퍼",
    "roadAddress": "서울특별시 종로구 종로63가길 39",
    "address": "서울특별시 종로구 숭인동 179-128",
    "lat": 37.5758630614363,
    "lng": 127.018786697877,
    "hasTrashBag": true,
    "hasSpecialBag": true,
    "dataReferenceDate": "2026-03-19",
    "businessStatus": "영업",
    "hasLargeWasteSticker": false,
    "adminVerified": false
  },
  {
    "name": "토마토MART",
    "roadAddress": "서울특별시 종로구 종로 378",
    "address": "서울특별시 종로구 숭인동 210-4",
    "lat": 37.5738859747003,
    "lng": 127.019551894493,
    "hasTrashBag": true,
    "hasSpecialBag": true,
    "dataReferenceDate": "2026-03-19",
    "businessStatus": "영업",
    "hasLargeWasteSticker": false,
    "adminVerified": false
  },
  {
    "name": "GS25 동묘역점",
    "roadAddress": "서울특별시 종로구 종로 344",
    "address": "서울특별시 종로구 숭인동 310",
    "lat": 37.5727228633137,
    "lng": 127.016083157911,
    "hasTrashBag": true,
    "hasSpecialBag": false,
    "dataReferenceDate": "2026-03-19",
    "businessStatus": "영업",
    "hasLargeWasteSticker": false,
    "adminVerified": false
  },
  {
    "name": "GS25 숭인마사회",
    "roadAddress": "서울특별시 종로구 난계로29길 67",
    "address": "서울특별시 종로구 숭인동 217-20",
    "lat": 37.5734380721529,
    "lng": 127.019660336748,
    "hasTrashBag": true,
    "hasSpecialBag": false,
    "dataReferenceDate": "2026-03-19",
    "businessStatus": "영업",
    "hasLargeWasteSticker": false,
    "adminVerified": false
  },
  {
    "name": "GS25 숭인본점",
    "roadAddress": "서울특별시 종로구 종로66길 25",
    "address": "서울특별시 종로구 숭인동 1417",
    "lat": 37.5737366973544,
    "lng": 127.022011600614,
    "hasTrashBag": true,
    "hasSpecialBag": false,
    "dataReferenceDate": "2026-03-12",
    "businessStatus": "영업",
    "hasLargeWasteSticker": false,
    "adminVerified": false
  },
  {
    "name": "씨유 경희궁3단지점",
    "roadAddress": "서울특별시 종로구 사직로8길 34",
    "address": "서울특별시 종로구 내수동 72",
    "lat": 37.57329883903054,
    "lng": 126.97252061103471,
    "hasTrashBag": true,
    "hasSpecialBag": false,
    "dataReferenceDate": "2026-03-24",
    "businessStatus": "영업",
    "hasLargeWasteSticker": false,
    "adminVerified": false
  },
  {
    "name": "GS25 숭인행운",
    "roadAddress": "서울특별시 종로구 난계로29가길 17",
    "address": "서울특별시 종로구 숭인동 1392",
    "lat": 37.573720704958,
    "lng": 127.02272351702,
    "hasTrashBag": true,
    "hasSpecialBag": false,
    "dataReferenceDate": "2026-03-05",
    "businessStatus": "영업",
    "hasLargeWasteSticker": false,
    "adminVerified": false
  },
  {
    "name": "GS25 종로동묘",
    "roadAddress": "서울특별시 종로구 지봉로 18",
    "address": "서울특별시 종로구 숭인동 316-2",
    "lat": 37.5717395307924,
    "lng": 127.015983784999,
    "hasTrashBag": true,
    "hasSpecialBag": true,
    "dataReferenceDate": "2026-03-19",
    "businessStatus": "영업",
    "hasLargeWasteSticker": false,
    "adminVerified": false
  },
  {
    "name": "세븐일레븐 신설동역점",
    "roadAddress": "서울특별시 종로구 보문로 3",
    "address": "서울특별시 종로구 숭인동 1248",
    "lat": 37.5760882217513,
    "lng": 127.022862572432,
    "hasTrashBag": true,
    "hasSpecialBag": false,
    "dataReferenceDate": "2026-03-05",
    "businessStatus": "영업",
    "hasLargeWasteSticker": false,
    "adminVerified": false
  },
  {
    "name": "동원식품",
    "roadAddress": "서울특별시 종로구 창신8길 49",
    "address": "서울특별시 종로구 창신동 23-577",
    "lat": 37.5780099763422,
    "lng": 127.010625769084,
    "hasTrashBag": true,
    "hasSpecialBag": true,
    "dataReferenceDate": "2026-03-12",
    "businessStatus": "영업",
    "hasLargeWasteSticker": false,
    "adminVerified": false
  },
  {
    "name": "세븐일레븐 피맛골점",
    "roadAddress": "서울특별시 종로구 종로 77",
    "address": "서울특별시 종로구 종로2가 12",
    "lat": 37.5704243338149,
    "lng": 126.986035120618,
    "hasTrashBag": true,
    "hasSpecialBag": false,
    "dataReferenceDate": "2026-03-18",
    "businessStatus": "영업",
    "hasLargeWasteSticker": false,
    "adminVerified": false
  },
  {
    "name": "씨유 연지점",
    "roadAddress": "서울특별시 종로구 종로31길 54",
    "address": "서울특별시 종로구 연지동 163-3",
    "lat": 37.5731744494963,
    "lng": 126.998728082785,
    "hasTrashBag": true,
    "hasSpecialBag": false,
    "dataReferenceDate": "2026-03-10",
    "businessStatus": "영업",
    "hasLargeWasteSticker": false,
    "adminVerified": false
  },
  {
    "name": "형제비니루",
    "roadAddress": "서울특별시 종로구 김상옥로 11",
    "address": "서울특별시 종로구 연지동 70",
    "lat": 37.5737235095179,
    "lng": 126.998240177092,
    "hasTrashBag": true,
    "hasSpecialBag": false,
    "dataReferenceDate": "2026-03-25",
    "businessStatus": "영업",
    "hasLargeWasteSticker": false,
    "adminVerified": false
  },
  {
    "name": "영보야채가게",
    "roadAddress": "서울특별시 종로구 삼일대로32길 49-7",
    "address": "서울특별시 종로구 운니동 45-2",
    "lat": 37.5758502191469,
    "lng": 126.989557702254,
    "hasTrashBag": true,
    "hasSpecialBag": true,
    "dataReferenceDate": "2026-03-25",
    "businessStatus": "영업",
    "hasLargeWasteSticker": false,
    "adminVerified": false
  },
  {
    "name": "㈜코리아세븐_청계하이뷰점",
    "roadAddress": "서울특별시 종로구 종로 210",
    "address": "서울특별시 종로구 종로5가 138-4",
    "lat": 37.5706678817379,
    "lng": 127.001207239452,
    "hasTrashBag": true,
    "hasSpecialBag": false,
    "dataReferenceDate": "2026-03-25",
    "businessStatus": "영업",
    "hasLargeWasteSticker": false,
    "adminVerified": false
  },
  {
    "name": "덕우상회",
    "roadAddress": "서울특별시 종로구 자하문로1길 9",
    "address": "서울특별시 종로구 내자동 4",
    "lat": 37.5764286485014,
    "lng": 126.971859135585,
    "hasTrashBag": true,
    "hasSpecialBag": false,
    "dataReferenceDate": "2026-03-24",
    "businessStatus": "영업",
    "hasLargeWasteSticker": false,
    "adminVerified": false
  },
  {
    "name": "혜화동슈퍼",
    "roadAddress": "서울특별시 종로구 낙산길 15",
    "address": "서울특별시 종로구 동숭동 129-136",
    "lat": 37.5805605087603,
    "lng": 127.005305310802,
    "hasTrashBag": true,
    "hasSpecialBag": false,
    "dataReferenceDate": "2026-02-26",
    "businessStatus": "영업",
    "hasLargeWasteSticker": false,
    "adminVerified": false
  },
  {
    "name": "케이마트",
    "roadAddress": "서울특별시 종로구 지봉로 87",
    "address": "서울특별시 종로구 창신동 23-816",
    "lat": 37.5780295588982,
    "lng": 127.014558601401,
    "hasTrashBag": true,
    "hasSpecialBag": true,
    "dataReferenceDate": "2026-03-25",
    "businessStatus": "영업",
    "hasLargeWasteSticker": false,
    "adminVerified": false
  },
  {
    "name": "지에스(GS)25 종로자이점",
    "roadAddress": "서울특별시 종로구 경교장길 35",
    "address": "서울특별시 종로구 평동 233",
    "lat": 37.568126,
    "lng": 126.966362,
    "hasTrashBag": true,
    "hasSpecialBag": false,
    "dataReferenceDate": "2026-03-23",
    "businessStatus": "영업",
    "hasLargeWasteSticker": false,
    "adminVerified": false
  },
  {
    "name": "오거리마트",
    "roadAddress": "서울특별시 종로구 자하문로9길 17",
    "address": "서울특별시 종로구 통인동 134-1",
    "lat": 37.5793351924477,
    "lng": 126.97013465346,
    "hasTrashBag": true,
    "hasSpecialBag": true,
    "dataReferenceDate": "2026-03-24",
    "businessStatus": "영업",
    "hasLargeWasteSticker": false,
    "adminVerified": false
  },
  {
    "name": "주식회사럭키할인마트",
    "roadAddress": "서울특별시 종로구 평창문화로 39",
    "address": "서울특별시 종로구 평창동 323-4",
    "lat": 37.6053138321972,
    "lng": 126.96574165259,
    "hasTrashBag": true,
    "hasSpecialBag": true,
    "dataReferenceDate": "2026-03-23",
    "businessStatus": "영업",
    "hasLargeWasteSticker": false,
    "adminVerified": false
  },
  {
    "name": "GS25 동숭",
    "roadAddress": "서울특별시 종로구 동숭길 140",
    "address": "서울특별시 종로구 혜화동 201",
    "lat": 37.5836704695233,
    "lng": 127.002563891133,
    "hasTrashBag": true,
    "hasSpecialBag": false,
    "dataReferenceDate": "2026-03-12",
    "businessStatus": "영업",
    "hasLargeWasteSticker": false,
    "adminVerified": false
  },
  {
    "name": "지에스25 종로혜화점",
    "roadAddress": "서울특별시 종로구 대학로 60",
    "address": "서울특별시 종로구 연건동 178-1",
    "lat": 37.5765554107808,
    "lng": 127.002574967692,
    "hasTrashBag": true,
    "hasSpecialBag": false,
    "dataReferenceDate": "2026-03-06",
    "businessStatus": "영업",
    "hasLargeWasteSticker": false,
    "adminVerified": false
  },
  {
    "name": "세븐일레븐 이화행복점",
    "roadAddress": "서울특별시 종로구 율곡로 235",
    "address": "서울특별시 종로구 충신동 52-2",
    "lat": 37.5758736390564,
    "lng": 127.005035438917,
    "hasTrashBag": true,
    "hasSpecialBag": false,
    "dataReferenceDate": "2026-03-20",
    "businessStatus": "영업",
    "hasLargeWasteSticker": false,
    "adminVerified": false
  },
  {
    "name": "씨유종로광장시장점",
    "roadAddress": "서울특별시 종로구 청계천로 215-1",
    "address": "서울특별시 종로구 종로5가 398-17",
    "lat": 37.5698617565278,
    "lng": 127.001598202543,
    "hasTrashBag": true,
    "hasSpecialBag": true,
    "dataReferenceDate": "2026-03-25",
    "businessStatus": "영업",
    "hasLargeWasteSticker": false,
    "adminVerified": false
  },
  {
    "name": "씨유 청계광장점",
    "roadAddress": "서울특별시 종로구 무교로 37",
    "address": "서울특별시 종로구 서린동 146",
    "lat": 37.5694076173271,
    "lng": 126.97909830012,
    "hasTrashBag": true,
    "hasSpecialBag": true,
    "dataReferenceDate": "2026-03-17",
    "businessStatus": "영업",
    "hasLargeWasteSticker": false,
    "adminVerified": false
  },
  {
    "name": "씨유(CU)종로대신점",
    "roadAddress": "서울특별시 종로구 사직로 7",
    "address": "서울특별시 종로구 행촌동 206-29",
    "lat": 37.5727349653941,
    "lng": 126.961179925392,
    "hasTrashBag": true,
    "hasSpecialBag": false,
    "dataReferenceDate": "2026-03-03",
    "businessStatus": "영업",
    "hasLargeWasteSticker": false,
    "adminVerified": false
  },
  {
    "name": "세븐일레븐 종로신영점",
    "roadAddress": "서울특별시 종로구 세검정로 265",
    "address": "서울특별시 종로구 신영동 196-4",
    "lat": 37.6021964617073,
    "lng": 126.960986602044,
    "hasTrashBag": true,
    "hasSpecialBag": false,
    "dataReferenceDate": "2026-03-10",
    "businessStatus": "영업",
    "hasLargeWasteSticker": false,
    "adminVerified": false
  },
  {
    "name": "(주)코리아세븐 청계센터점",
    "roadAddress": "서울특별시 종로구 청계천로 61",
    "address": "서울특별시 종로구 관철동 43-8",
    "lat": 37.56893567583878,
    "lng": 126.98433398309989,
    "hasTrashBag": true,
    "hasSpecialBag": false,
    "dataReferenceDate": "2026-03-25",
    "businessStatus": "영업",
    "hasLargeWasteSticker": false,
    "adminVerified": false
  },
  {
    "name": "세븐일레븐 낙원점",
    "roadAddress": "서울특별시 종로구 인사동4길 17",
    "address": "서울특별시 종로구 경운동 47-1",
    "lat": 37.573339611126784,
    "lng": 126.98697629063493,
    "hasTrashBag": true,
    "hasSpecialBag": false,
    "dataReferenceDate": "2026-03-24",
    "businessStatus": "영업",
    "hasLargeWasteSticker": false,
    "adminVerified": false
  },
  {
    "name": "씨유 두산창신점",
    "roadAddress": "서울특별시 종로구 지봉로5길 7",
    "address": "서울특별시 종로구 창신동 232",
    "lat": 37.57442056863298,
    "lng": 127.01501342389895,
    "hasTrashBag": true,
    "hasSpecialBag": true,
    "dataReferenceDate": "2026-03-13",
    "businessStatus": "영업",
    "hasLargeWasteSticker": false,
    "adminVerified": false
  },
  {
    "name": "씨유 종로효자점",
    "roadAddress": "서울특별시 종로구 자하문로 82",
    "address": "서울특별시 종로구 효자동 70-1",
    "lat": 37.583396272955575,
    "lng": 126.97062053779233,
    "hasTrashBag": true,
    "hasSpecialBag": false,
    "dataReferenceDate": "2026-03-23",
    "businessStatus": "영업",
    "hasLargeWasteSticker": false,
    "adminVerified": false
  },
  {
    "name": "씨유 광화문점",
    "roadAddress": "서울특별시 종로구 새문안로 89",
    "address": "서울특별시 종로구 신문로1가 25",
    "lat": 37.5704743059958,
    "lng": 126.974513333988,
    "hasTrashBag": true,
    "hasSpecialBag": false,
    "dataReferenceDate": "2026-03-23",
    "businessStatus": "영업",
    "hasLargeWasteSticker": false,
    "adminVerified": false
  },
  {
    "name": "씨유 신진시장점",
    "roadAddress": "서울특별시 종로구 종로 248-19",
    "address": "서울특별시 종로구 종로5가 247-1",
    "lat": 37.5704105333998,
    "lng": 127.00533051265,
    "hasTrashBag": true,
    "hasSpecialBag": false,
    "dataReferenceDate": "2026-03-13",
    "businessStatus": "영업",
    "hasLargeWasteSticker": false,
    "adminVerified": false
  },
  {
    "name": "(주)비지에프리테일 마로니에공원점",
    "roadAddress": "서울특별시 종로구 대학로12길 73",
    "address": "서울특별시 종로구 동숭동 1-144",
    "lat": 37.58080274880059,
    "lng": 127.00395674988938,
    "hasTrashBag": true,
    "hasSpecialBag": false,
    "dataReferenceDate": "2026-03-26",
    "businessStatus": "영업",
    "hasLargeWasteSticker": false,
    "adminVerified": false
  },
  {
    "name": "GS25 숭인현대점",
    "roadAddress": "서울특별시 종로구 숭인동길 16",
    "address": "서울특별시 종로구 숭인동 1062",
    "lat": 37.5757236988788,
    "lng": 127.021807059759,
    "hasTrashBag": true,
    "hasSpecialBag": false,
    "dataReferenceDate": "2026-03-19",
    "businessStatus": "영업",
    "hasLargeWasteSticker": false,
    "adminVerified": false
  },
  {
    "name": "(주)코리아세븐 종로호스텔코리아점",
    "roadAddress": "서울특별시 종로구 돈화문로 85",
    "address": "서울특별시 종로구 와룡동 140",
    "lat": 37.576078322139,
    "lng": 126.990275160995,
    "hasTrashBag": true,
    "hasSpecialBag": false,
    "dataReferenceDate": "2026-04-22",
    "businessStatus": "영업",
    "hasLargeWasteSticker": false,
    "adminVerified": false
  },
  {
    "name": "지에스25 종로 YMCA점",
    "roadAddress": "서울특별시 종로구 종로 69",
    "address": "서울특별시 종로구 종로2가 9",
    "lat": 37.5705768749389,
    "lng": 126.98531414524,
    "hasTrashBag": true,
    "hasSpecialBag": true,
    "dataReferenceDate": "2026-03-24",
    "businessStatus": "영업",
    "hasLargeWasteSticker": false,
    "adminVerified": false
  },
  {
    "name": "지에스25 동묘알파점",
    "roadAddress": "서울특별시 종로구 종로 367",
    "address": "서울특별시 종로구 숭인동 72-83",
    "lat": 37.5739772131945,
    "lng": 127.018057659961,
    "hasTrashBag": true,
    "hasSpecialBag": true,
    "dataReferenceDate": "2026-03-13",
    "businessStatus": "영업",
    "hasLargeWasteSticker": false,
    "adminVerified": false
  },
  {
    "name": "씨유 삼청점",
    "roadAddress": "서울특별시 종로구 삼청로 68, 1층",
    "address": "서울특별시 종로구 화동 61, 1층",
    "lat": 37.5815765540101,
    "lng": 126.981332211855,
    "hasTrashBag": true,
    "hasSpecialBag": false,
    "dataReferenceDate": "2026-03-23",
    "businessStatus": "영업",
    "hasLargeWasteSticker": false,
    "adminVerified": false
  },
  {
    "name": "일성상회",
    "roadAddress": "서울특별시 종로구 창경궁로 88",
    "address": "서울특별시 종로구 예지동 2-1",
    "lat": 37.5701196320637,
    "lng": 126.999798964693,
    "hasTrashBag": true,
    "hasSpecialBag": false,
    "dataReferenceDate": "2026-03-10",
    "businessStatus": "영업",
    "hasLargeWasteSticker": false,
    "adminVerified": false
  },
  {
    "name": "지에스25 종로관훈점",
    "roadAddress": "서울특별시 종로구 인사동5길 42",
    "address": "서울특별시 종로구 관훈동 198-8",
    "lat": 37.5724501211852,
    "lng": 126.983836755792,
    "hasTrashBag": true,
    "hasSpecialBag": false,
    "dataReferenceDate": "2026-03-24",
    "businessStatus": "영업",
    "hasLargeWasteSticker": false,
    "adminVerified": false
  },
  {
    "name": "명전사",
    "roadAddress": "서울특별시 종로구 종로5길 36",
    "address": "서울특별시 종로구 청진동 17",
    "lat": 37.571881008678,
    "lng": 126.980557526346,
    "hasTrashBag": false,
    "hasSpecialBag": true,
    "dataReferenceDate": "2026-03-09",
    "businessStatus": "영업",
    "hasLargeWasteSticker": false,
    "adminVerified": false
  },
  {
    "name": "씨유 서순라길점",
    "roadAddress": "서울특별시 종로구 서순라길 29",
    "address": "서울특별시 종로구 봉익동 52",
    "lat": 37.5720302914182,
    "lng": 126.993635643686,
    "hasTrashBag": true,
    "hasSpecialBag": false,
    "dataReferenceDate": "2026-03-10",
    "businessStatus": "영업",
    "hasLargeWasteSticker": false,
    "adminVerified": false
  },
  {
    "name": "(주)코리아세븐 종로누상점",
    "roadAddress": "서울특별시 종로구 옥인3길 2-1",
    "address": "서울특별시 종로구 누상동 17",
    "lat": 37.5809731670758,
    "lng": 126.966332227636,
    "hasTrashBag": true,
    "hasSpecialBag": false,
    "dataReferenceDate": "2026-03-09",
    "businessStatus": "영업",
    "hasLargeWasteSticker": false,
    "adminVerified": false
  },
  {
    "name": "(주)우아한형제들 B마트 중구명동점",
    "roadAddress": "서울특별시 종로구 종로12길 15",
    "address": "서울특별시 종로구 관철동 13-13",
    "lat": 37.5693656626833,
    "lng": 126.986022414113,
    "hasTrashBag": true,
    "hasSpecialBag": false,
    "dataReferenceDate": "2026-03-11",
    "businessStatus": "영업",
    "hasLargeWasteSticker": false,
    "adminVerified": false
  },
  {
    "name": "씨유 서촌사거리점",
    "roadAddress": "서울특별시 종로구 자하문로 37-1",
    "address": "서울특별시 종로구 통인동 137-15",
    "lat": 37.5793929163302,
    "lng": 126.971100761039,
    "hasTrashBag": true,
    "hasSpecialBag": false,
    "dataReferenceDate": "2026-03-16",
    "businessStatus": "영업",
    "hasLargeWasteSticker": false,
    "adminVerified": false
  },
  {
    "name": "우리구멍가게",
    "roadAddress": "서울특별시 종로구 창신11길 1",
    "address": "서울특별시 종로구 창신동 611-95",
    "lat": 37.579448324598,
    "lng": 127.009556481672,
    "hasTrashBag": true,
    "hasSpecialBag": false,
    "dataReferenceDate": "2026-03-05",
    "businessStatus": "영업",
    "hasLargeWasteSticker": false,
    "adminVerified": false
  },
  {
    "name": "gs25 뉴안녕인사동점",
    "roadAddress": "서울특별시 종로구 인사동길 49",
    "address": "서울특별시 종로구 관훈동 155-2",
    "lat": 37.5744668688197,
    "lng": 126.983552182559,
    "hasTrashBag": true,
    "hasSpecialBag": true,
    "dataReferenceDate": "2026-03-11",
    "businessStatus": "영업",
    "hasLargeWasteSticker": false,
    "adminVerified": false
  },
  {
    "name": "이마트24 종로성균관점",
    "roadAddress": "서울특별시 종로구 성균관로 73",
    "address": "서울특별시 종로구 명륜1가 7-19",
    "lat": 37.5893138323094,
    "lng": 126.99716451589,
    "hasTrashBag": true,
    "hasSpecialBag": false,
    "dataReferenceDate": "2026-03-25",
    "businessStatus": "영업",
    "hasLargeWasteSticker": false,
    "adminVerified": false
  },
  {
    "name": "MJ.Mall",
    "roadAddress": "서울특별시 종로구 종로26길 30",
    "address": "서울특별시 종로구 장사동 182-13",
    "lat": 37.5690378730151,
    "lng": 126.994808587306,
    "hasTrashBag": true,
    "hasSpecialBag": true,
    "dataReferenceDate": "2026-03-17",
    "businessStatus": "영업",
    "hasLargeWasteSticker": false,
    "adminVerified": false
  },
  {
    "name": "씨유 NH농협타워점",
    "roadAddress": "서울특별시 종로구 통일로 134",
    "address": "서울특별시 종로구 평동 222",
    "lat": 37.5667350238449,
    "lng": 126.966357200132,
    "hasTrashBag": true,
    "hasSpecialBag": false,
    "dataReferenceDate": "2026-03-25",
    "businessStatus": "영업",
    "hasLargeWasteSticker": false,
    "adminVerified": false
  }
]