[
  {
    "name": "(주)이마트에브리데이",
    "lat": 37.5771331076744,
    "lng": 127.219723077989,
    "roadAddress": "경기도 남양주시 와부읍 덕소로 230-52, 제이엠골프연습장",
    "address": "경기도 남양주시 와부읍 덕소로 230-52, 제이엠골프연습장",
    "businessStatus": "영업",
    "hasTrashBag": true,
    "hasSpecialBag": false,
    "hasLargeWasteSticker": false,
    "adminVerified": false,
    "dataReferenceDate": "2025-04-01"
  },
  {
    "name": "(주)삼원농산식자재마트",
    "lat": 37.576899093183,
    "lng": 127.227256562302,
    "roadAddress": "경기도 남양주시 와부읍 석실로 7",
    "address": "경기도 남양주시 와부읍 석실로 7",
    "businessStatus": "영업",
    "hasTrashBag": true,
    "hasSpecialBag": false,
    "hasLargeWasteSticker": false,
    "adminVerified": false,
    "dataReferenceDate": "2025-04-01"
  },
  {
    "name": "씨유 덕소신한점",
    "lat": 37.5824987256418,
    "lng": 127.213471088161,
    "roadAddress": "경기도 남양주시 와부읍 덕소로2번길 137, 신한토탈아파트 상가동101,102호",
    "address": "경기도 남양주시 와부읍 덕소로2번길 137, 신한토탈아파트 상가동101,102호",
    "businessStatus": "영업",
    "hasTrashBag": true,
    "hasSpecialBag": false,
    "hasLargeWasteSticker": false,
    "adminVerified": false,
    "dataReferenceDate": "2025-04-01"
  },
  {
    "name": "씨유 덕소동부점",
    "lat": 37.5915670417169,
    "lng": 127.222486030557,
    "roadAddress": "경기도 남양주시 와부읍 수레로116번길 16,IVY Spa 107,110,111,112호",
    "address": "경기도 남양주시 와부읍 수레로116번길 16,IVY Spa 107,110,111,112호",
    "businessStatus": "영업",
    "hasTrashBag": true,
    "hasSpecialBag": false,
    "hasLargeWasteSticker": false,
    "adminVerified": false,
    "dataReferenceDate": "2025-04-01"
  },
  {
    "name": "조아마트",
    "lat": 37.5807296520329,
    "lng": 127.218042268658,
    "roadAddress": "경기도 남양주시 와부읍 덕소로 177, 상가동 201호 (벽산아파트)",
    "address": "경기도 남양주시 와부읍 덕소로 177, 상가동 201호 (벽산아파트)",
    "businessStatus": "영업",
    "hasTrashBag": true,
    "hasSpecialBag": false,
    "hasLargeWasteSticker": false,
    "adminVerified": false,
    "dataReferenceDate": "2025-04-01"
  },
  {
    "name": "이마트24 다산생태공원점",
    "lat": 37.514280869312,
    "lng": 127.297932878844,
    "roadAddress": "경기도 남양주시 조안면 다산로 772",
    "address": "경기도 남양주시 조안면 다산로 772",
    "businessStatus": "영업",
    "hasTrashBag": true,
    "hasSpecialBag": false,
    "hasLargeWasteSticker": false,
    "adminVerified": false,
    "dataReferenceDate": "2025-04-01"
  },
  {
    "name": "씨유 남양주삼봉점",
    "lat": 37.5966203896026,
    "lng": 127.33844703622,
    "roadAddress": "경기도 남양주시 조안면 북한강로 901",
    "address": "경기도 남양주시 조안면 북한강로 901",
    "businessStatus": "영업",
    "hasTrashBag": true,
    "hasSpecialBag": false,
    "hasLargeWasteSticker": false,
    "adminVerified": false,
    "dataReferenceDate": "2025-04-01"
  },
  {
    "name": "씨유남양주조안점",
    "lat": 37.5292775697908,
    "lng": 127.288713653096,
    "roadAddress": "경기도 남양주시 조안면 다산로 437, 1층",
    "address": "경기도 남양주시 조안면 다산로 437, 1층",
    "businessStatus": "영업",
    "hasTrashBag": true,
    "hasSpecialBag": false,
    "hasLargeWasteSticker": false,
    "adminVerified": false,
    "dataReferenceDate": "2025-04-01"
  },
  {
    "name": "씨유 덕소은산점",
    "lat": 37.5880266246596,
    "lng": 127.218322605681,
    "roadAddress": "경기도 남양주시 와부읍 덕소로97번길 61, 은산빌딩",
    "address": "경기도 남양주시 와부읍 덕소로97번길 61, 은산빌딩",
    "businessStatus": "영업",
    "hasTrashBag": true,
    "hasSpecialBag": false,
    "hasLargeWasteSticker": false,
    "adminVerified": false,
    "dataReferenceDate": "2025-04-01"
  },
  {
    "name": "씨유 남양주도곡점",
    "lat": 37.5768154223162,
    "lng": 127.229058425711,
    "roadAddress": "경기도 남양주시 와부읍 궁촌로 9, 1층",
    "address": "경기도 남양주시 와부읍 궁촌로 9, 1층",
    "businessStatus": "영업",
    "hasTrashBag": true,
    "hasSpecialBag": false,
    "hasLargeWasteSticker": false,
    "adminVerified": false,
    "dataReferenceDate": "2025-04-01"
  },
  {
    "name": "롯데쇼핑(주) 롯데마트 덕소점",
    "lat": 37.5846972336652,
    "lng": 127.214019451022,
    "roadAddress": "경기도 남양주시 와부읍 월문천로 33, 롯데마트",
    "address": "경기도 남양주시 와부읍 월문천로 33, 롯데마트",
    "businessStatus": "영업",
    "hasTrashBag": true,
    "hasSpecialBag": false,
    "hasLargeWasteSticker": false,
    "adminVerified": false,
    "dataReferenceDate": "2025-04-01"
  },
  {
    "name": "세븐일레븐 남양주덕소점",
    "lat": 37.5849071986455,
    "lng": 127.209936627796,
    "roadAddress": "경기도 남양주시 와부읍 덕소로116번길 23, 레일스타빌딩 104,105호",
    "address": "경기도 남양주시 와부읍 덕소로116번길 23, 레일스타빌딩 104,105호",
    "businessStatus": "영업",
    "hasTrashBag": true,
    "hasSpecialBag": false,
    "hasLargeWasteSticker": false,
    "adminVerified": false,
    "dataReferenceDate": "2025-04-01"
  },
  {
    "name": "세븐일레븐 남양주송촌리점",
    "lat": 37.5681188971012,
    "lng": 127.322530461227,
    "roadAddress": "경기도 남양주시 조안면 북한강로 550",
    "address": "경기도 남양주시 조안면 북한강로 550",
    "businessStatus": "영업",
    "hasTrashBag": true,
    "hasSpecialBag": false,
    "hasLargeWasteSticker": false,
    "adminVerified": false,
    "dataReferenceDate": "2025-04-01"
  },
  {
    "name": "롯데쇼핑(주) 롯데슈퍼남양주도곡점",
    "lat": 37.5792331756238,
    "lng": 127.222542269695,
    "roadAddress": "경기도 남양주시 와부읍 덕소로 238, 인덕빌딩",
    "address": "경기도 남양주시 와부읍 덕소로 238, 인덕빌딩",
    "businessStatus": "영업",
    "hasTrashBag": true,
    "hasSpecialBag": false,
    "hasLargeWasteSticker": false,
    "adminVerified": false,
    "dataReferenceDate": "2025-04-01"
  },
  {
    "name": "이마트24R남양주도곡점",
    "lat": 37.5764455411159,
    "lng": 127.22452162512,
    "roadAddress": "경기도 남양주시 와부읍 덕소로284번길 5-20, 1층",
    "address": "경기도 남양주시 와부읍 덕소로284번길 5-20, 1층",
    "businessStatus": "영업",
    "hasTrashBag": true,
    "hasSpecialBag": false,
    "hasLargeWasteSticker": false,
    "adminVerified": false,
    "dataReferenceDate": "2025-04-01"
  },
  {
    "name": "GS25 남양주 율석리점",
    "lat": 37.610481926346,
    "lng": 127.212327535427,
    "roadAddress": "경기도 남양주시 와부읍 석실로488번길 6",
    "address": "경기도 남양주시 와부읍 석실로488번길 6",
    "businessStatus": "영업",
    "hasTrashBag": true,
    "hasSpecialBag": false,
    "hasLargeWasteSticker": false,
    "adminVerified": false,
    "dataReferenceDate": "2025-04-01"
  },
  {
    "name": "한강마트",
    "lat": 37.5888611012508,
    "lng": 127.216867853799,
    "roadAddress": "경기도 남양주시 와부읍 수레로 51",
    "address": "경기도 남양주시 와부읍 수레로 51",
    "businessStatus": "영업",
    "hasTrashBag": true,
    "hasSpecialBag": false,
    "hasLargeWasteSticker": false,
    "adminVerified": false,
    "dataReferenceDate": "2025-04-01"
  },
  {
    "name": "세븐일레븐 덕소월문점",
    "lat": 37.6008934239619,
    "lng": 127.242226841622,
    "roadAddress": "경기도 남양주시 와부읍 수레로 321",
    "address": "경기도 남양주시 와부읍 수레로 321",
    "businessStatus": "영업",
    "hasTrashBag": true,
    "hasSpecialBag": false,
    "hasLargeWasteSticker": false,
    "adminVerified": false,
    "dataReferenceDate": "2025-04-01"
  },
  {
    "name": "씨유 남양주수레로점",
    "lat": 37.5953460645617,
    "lng": 127.226840693254,
    "roadAddress": "경기도 남양주시 와부읍 수레로 169, 1층",
    "address": "경기도 남양주시 와부읍 수레로 169, 1층",
    "businessStatus": "영업",
    "hasTrashBag": true,
    "hasSpecialBag": false,
    "hasLargeWasteSticker": false,
    "adminVerified": false,
    "dataReferenceDate": "2025-04-01"
  },
  {
    "name": "지에스(GS)25 와부행복점",
    "lat": 37.5894356901983,
    "lng": 127.21778290375,
    "roadAddress": "경기도 남양주시 와부읍 수레로 60-7, 훼밀리프라자",
    "address": "경기도 남양주시 와부읍 수레로 60-7, 훼밀리프라자",
    "businessStatus": "영업",
    "hasTrashBag": true,
    "hasSpecialBag": false,
    "hasLargeWasteSticker": false,
    "adminVerified": false,
    "dataReferenceDate": "2025-04-01"
  },
  {
    "name": "와부농업협동조합경제사업소",
    "lat": 37.5935423781115,
    "lng": 127.225427193291,
    "roadAddress": "경기도 남양주시 와부읍 석실로 231",
    "address": "경기도 남양주시 와부읍 석실로 231",
    "businessStatus": "영업",
    "hasTrashBag": true,
    "hasSpecialBag": false,
    "hasLargeWasteSticker": false,
    "adminVerified": false,
    "dataReferenceDate": "2025-04-01"
  },
  {
    "name": "세븐일레븐 와부으뜸점",
    "lat": 37.612892572608,
    "lng": 127.267081490179,
    "roadAddress": "경기도 남양주시 와부읍 수레로 587, 101,102호",
    "address": "경기도 남양주시 와부읍 수레로 587, 101,102호",
    "businessStatus": "영업",
    "hasTrashBag": true,
    "hasSpecialBag": false,
    "hasLargeWasteSticker": false,
    "adminVerified": false,
    "dataReferenceDate": "2025-04-01"
  },
  {
    "name": "초록마을 덕소점",
    "lat": 37.5871636499466,
    "lng": 127.216712118362,
    "roadAddress": "경기도 남양주시 와부읍 덕소리 138",
    "address": "경기도 남양주시 와부읍 덕소리 138",
    "businessStatus": "영업",
    "hasTrashBag": true,
    "hasSpecialBag": false,
    "hasLargeWasteSticker": false,
    "adminVerified": false,
    "dataReferenceDate": "2025-04-01"
  },
  {
    "name": "와부농협도곡지점",
    "lat": 37.5795176768946,
    "lng": 127.221024749817,
    "roadAddress": "경기도 남양주시 와부읍 덕소로 224",
    "address": "경기도 남양주시 와부읍 덕소로 224",
    "businessStatus": "영업",
    "hasTrashBag": true,
    "hasSpecialBag": false,
    "hasLargeWasteSticker": false,
    "adminVerified": false,
    "dataReferenceDate": "2025-04-01"
  },
  {
    "name": "와부농협조안지점",
    "lat": 37.548921023381,
    "lng": 127.309244197154,
    "roadAddress": "경기도 남양주시 조안면 북한강로 286-35, 와부농협",
    "address": "경기도 남양주시 조안면 북한강로 286-35, 와부농협",
    "businessStatus": "영업",
    "hasTrashBag": true,
    "hasSpecialBag": false,
    "hasLargeWasteSticker": false,
    "adminVerified": false,
    "dataReferenceDate": "2025-04-01"
  },
  {
    "name": "씨유 남양주도곡우성점",
    "lat": 37.5781377038809,
    "lng": 127.22203999076,
    "roadAddress": "경기도 남양주시 와부읍 덕소로 270, B동 102호 (한강우성아파트)",
    "address": "경기도 남양주시 와부읍 덕소로 270, B동 102호 (한강우성아파트)",
    "businessStatus": "영업",
    "hasTrashBag": true,
    "hasSpecialBag": false,
    "hasLargeWasteSticker": false,
    "adminVerified": false,
    "dataReferenceDate": "2025-04-01"
  },
  {
    "name": "지에스(GS)25 와부주공점",
    "lat": 37.586672848322,
    "lng": 127.215351031553,
    "roadAddress": "경기도 남양주시 와부읍 덕소로97번길 29-1, 1층",
    "address": "경기도 남양주시 와부읍 덕소로97번길 29-1, 1층",
    "businessStatus": "영업",
    "hasTrashBag": true,
    "hasSpecialBag": false,
    "hasLargeWasteSticker": false,
    "adminVerified": false,
    "dataReferenceDate": "2025-04-01"
  },
  {
    "name": "지에스(GS)25 남양주인정점",
    "lat": 37.5893692812147,
    "lng": 127.214439870292,
    "roadAddress": "경기도 남양주시 와부읍 수레로9번안길 1, 1층",
    "address": "경기도 남양주시 와부읍 수레로9번안길 1, 1층",
    "businessStatus": "영업",
    "hasTrashBag": true,
    "hasSpecialBag": false,
    "hasLargeWasteSticker": false,
    "adminVerified": false,
    "dataReferenceDate": "2025-04-01"
  },
  {
    "name": "(주)코리아세븐 조안삼봉리점",
    "lat": 37.5922457388316,
    "lng": 127.337123170823,
    "roadAddress": "경기도 남양주시 조안면 북한강로 850, 2층",
    "address": "경기도 남양주시 조안면 북한강로 850, 2층",
    "businessStatus": "영업",
    "hasTrashBag": true,
    "hasSpecialBag": false,
    "hasLargeWasteSticker": false,
    "adminVerified": false,
    "dataReferenceDate": "2025-04-01"
  },
  {
    "name": "한아름마트",
    "lat": 37.5881397113317,
    "lng": 127.21640777522,
    "roadAddress": "경기도 남양주시 와부읍 수레로 41, KT덕소지점",
    "address": "경기도 남양주시 와부읍 수레로 41, KT덕소지점",
    "businessStatus": "영업",
    "hasTrashBag": true,
    "hasSpecialBag": false,
    "hasLargeWasteSticker": false,
    "adminVerified": false,
    "dataReferenceDate": "2025-04-01"
  },
  {
    "name": "씨유(CU)도곡위브점",
    "lat": 37.5799347419344,
    "lng": 127.216407346166,
    "roadAddress": "경기도 남양주시 와부읍 덕소로 176, 두산위브아파트 상가동 102호",
    "address": "경기도 남양주시 와부읍 덕소로 176, 두산위브아파트 상가동 102호",
    "businessStatus": "영업",
    "hasTrashBag": true,
    "hasSpecialBag": false,
    "hasLargeWasteSticker": false,
    "adminVerified": false,
    "dataReferenceDate": "2025-04-01"
  },
  {
    "name": "GS25 남양주덕소점",
    "lat": 37.5884061498894,
    "lng": 127.220295832932,
    "roadAddress": "경기도 남양주시 와부읍 덕소로97번길 80, 덕소아이파크 108,109호",
    "address": "경기도 남양주시 와부읍 덕소로97번길 80, 덕소아이파크 108,109호",
    "businessStatus": "영업",
    "hasTrashBag": true,
    "hasSpecialBag": false,
    "hasLargeWasteSticker": false,
    "adminVerified": false,
    "dataReferenceDate": "2025-04-01"
  },
  {
    "name": "(주)코리아세븐 남양주덕소으뜸점",
    "lat": 37.5862695985087,
    "lng": 127.212348412853,
    "roadAddress": "경기도 남양주시 와부읍 덕소로 89",
    "address": "경기도 남양주시 와부읍 덕소로 89",
    "businessStatus": "영업",
    "hasTrashBag": true,
    "hasSpecialBag": false,
    "hasLargeWasteSticker": false,
    "adminVerified": false,
    "dataReferenceDate": "2025-04-01"
  },
  {
    "name": "주식회사 보암(이마트24R충호회관점)",
    "lat": 37.6029341217026,
    "lng": 127.22570410272,
    "roadAddress": "경기도 남양주시 와부읍 석실로260번길 74-17",
    "address": "경기도 남양주시 와부읍 석실로260번길 74-17",
    "businessStatus": "영업",
    "hasTrashBag": true,
    "hasSpecialBag": false,
    "hasLargeWasteSticker": false,
    "adminVerified": false,
    "dataReferenceDate": "2025-04-01"
  },
  {
    "name": "지에스(GS)25 남양주월문",
    "lat": 37.5920252909708,
    "lng": 127.228472992893,
    "roadAddress": "경기도 남양주시 와부읍 석실로 200",
    "address": "경기도 남양주시 와부읍 석실로 200",
    "businessStatus": "영업",
    "hasTrashBag": true,
    "hasSpecialBag": false,
    "hasLargeWasteSticker": false,
    "adminVerified": false,
    "dataReferenceDate": "2025-04-01"
  },
  {
    "name": "와부농업협동조합 하나로마트",
    "lat": 37.5941262334003,
    "lng": 127.22494771985,
    "roadAddress": "경기도 남양주시 와부읍 수레로 150",
    "address": "경기도 남양주시 와부읍 수레로 150",
    "businessStatus": "영업",
    "hasTrashBag": true,
    "hasSpecialBag": false,
    "hasLargeWasteSticker": false,
    "adminVerified": false,
    "dataReferenceDate": "2025-04-01"
  },
  {
    "name": "씨유뉴덕소중앙점",
    "lat": 37.5873280380708,
    "lng": 127.211520374513,
    "roadAddress": "경기도 남양주시 와부읍 덕소로 73, 1층 113호 (세양아르비채리버)",
    "address": "경기도 남양주시 와부읍 덕소로 73, 1층 113호 (세양아르비채리버)",
    "businessStatus": "영업",
    "hasTrashBag": true,
    "hasSpecialBag": false,
    "hasLargeWasteSticker": false,
    "adminVerified": false,
    "dataReferenceDate": "2025-04-01"
  },
  {
    "name": "씨유 남양주조안중앙점",
    "lat": 37.5366430535515,
    "lng": 127.302919397997,
    "roadAddress": "경기도 남양주시 조안면 북한강로 130, 1층 일부호",
    "address": "경기도 남양주시 조안면 북한강로 130, 1층 일부호",
    "businessStatus": "영업",
    "hasTrashBag": true,
    "hasSpecialBag": false,
    "hasLargeWasteSticker": false,
    "adminVerified": false,
    "dataReferenceDate": "2025-04-01"
  },
  {
    "name": "영광슈퍼",
    "lat": 37.5884655894792,
    "lng": 127.211894286128,
    "roadAddress": "경기도 남양주시 와부읍 덕소로71번길 19-2, 1층 (영광맨션아파트)",
    "address": "경기도 남양주시 와부읍 덕소로71번길 19-2, 1층 (영광맨션아파트)",
    "businessStatus": "영업",
    "hasTrashBag": true,
    "hasSpecialBag": false,
    "hasLargeWasteSticker": false,
    "adminVerified": false,
    "dataReferenceDate": "2025-04-01"
  },
  {
    "name": "봉두슈퍼",
    "lat": 37.6096944519318,
    "lng": 127.210876534837,
    "roadAddress": "경기도 남양주시 와부읍 석실로 471-6",
    "address": "경기도 남양주시 와부읍 석실로 471-6",
    "businessStatus": "영업",
    "hasTrashBag": true,
    "hasSpecialBag": false,
    "hasLargeWasteSticker": false,
    "adminVerified": false,
    "dataReferenceDate": "2025-04-01"
  },
  {
    "name": "이마트24덕소현대",
    "lat": 37.5819524188054,
    "lng": 127.214534299038,
    "roadAddress": "경기도 남양주시 와부읍 덕소로 146, 강변현대아파트 201호",
    "address": "경기도 남양주시 와부읍 덕소로 146, 강변현대아파트 201호",
    "businessStatus": "영업",
    "hasTrashBag": true,
    "hasSpecialBag": false,
    "hasLargeWasteSticker": false,
    "adminVerified": false,
    "dataReferenceDate": "2025-04-01"
  },
  {
    "name": "씨유덕소삼패IC",
    "lat": 37.5974871742533,
    "lng": 127.214604371661,
    "roadAddress": "경기도 남양주시 와부읍 고산로 446",
    "address": "경기도 남양주시 와부읍 고산로 446",
    "businessStatus": "영업",
    "hasTrashBag": true,
    "hasSpecialBag": false,
    "hasLargeWasteSticker": false,
    "adminVerified": false,
    "dataReferenceDate": "2025-04-01"
  },
  {
    "name": "지에스(GS)25 덕소럭키점",
    "lat": 37.5857524449416,
    "lng": 127.213239449333,
    "roadAddress": "경기도 남양주시 와부읍 덕소로 97번길 10, 상가동 103호",
    "address": "경기도 남양주시 와부읍 덕소로 97번길 10, 상가동 103호",
    "businessStatus": "영업",
    "hasTrashBag": true,
    "hasSpecialBag": false,
    "hasLargeWasteSticker": false,
    "adminVerified": false,
    "dataReferenceDate": "2025-04-01"
  },
  {
    "name": "지에스(GS)25 덕소월드점",
    "lat": 37.5885864585149,
    "lng": 127.20735301495,
    "roadAddress": "경기도 남양주시 와부읍 덕소로 35,주공아파트 상가동 1층 101호",
    "address": "경기도 남양주시 와부읍 덕소로 35,주공아파트 상가동 1층 101호",
    "businessStatus": "영업",
    "hasTrashBag": true,
    "hasSpecialBag": false,
    "hasLargeWasteSticker": false,
    "adminVerified": false,
    "dataReferenceDate": "2025-04-01"
  },
  {
    "name": "현대농산물직판장",
    "lat": 37.5799304136988,
    "lng": 127.220112703304,
    "roadAddress": "경기도 남양주시 와부읍 덕소로 213,덕소강변서희스타힐스 2층 201,202,203,204호",
    "address": "경기도 남양주시 와부읍 덕소로 213,덕소강변서희스타힐스 2층 201,202,203,204호",
    "businessStatus": "영업",
    "hasTrashBag": true,
    "hasSpecialBag": false,
    "hasLargeWasteSticker": false,
    "adminVerified": false,
    "dataReferenceDate": "2025-04-01"
  },
  {
    "name": "한음골",
    "lat": 37.5688315519147,
    "lng": 127.317053287828,
    "roadAddress": "경기도 남양주시 조안면 한음길7, 1층",
    "address": "경기도 남양주시 조안면 한음길7, 1층",
    "businessStatus": "영업",
    "hasTrashBag": true,
    "hasSpecialBag": false,
    "hasLargeWasteSticker": false,
    "adminVerified": false,
    "dataReferenceDate": "2025-04-01"
  },
  {
    "name": "씨유 덕소사랑점",
    "lat": 37.5905785364199,
    "lng": 127.21801087484,
    "roadAddress": "경기도 남양주시 와부읍 수레로 75, 1층",
    "address": "경기도 남양주시 와부읍 수레로 75, 1층",
    "businessStatus": "영업",
    "hasTrashBag": true,
    "hasSpecialBag": false,
    "hasLargeWasteSticker": false,
    "adminVerified": false,
    "dataReferenceDate": "2025-04-01"
  },
  {
    "name": "이마트에브리데이 남양주도곡점",
    "lat": 37.5771331076744,
    "lng": 127.219723077989,
    "roadAddress": "경기도 남양주시 와부읍 덕소로 230-52, 1층",
    "address": "경기도 남양주시 와부읍 덕소로 230-52, 1층",
    "businessStatus": "영업",
    "hasTrashBag": true,
    "hasSpecialBag": false,
    "hasLargeWasteSticker": false,
    "adminVerified": false,
    "dataReferenceDate": "2025-04-01"
  },
  {
    "name": "왕도매식자재마트",
    "lat": 37.7279509893289,
    "lng": 127.19232206537,
    "roadAddress": "경기도 남양주시 진접읍 금강로 1537",
    "address": "경기도 남양주시 진접읍 금강로 1537",
    "businessStatus": "영업",
    "hasTrashBag": true,
    "hasSpecialBag": false,
    "hasLargeWasteSticker": false,
    "adminVerified": false,
    "dataReferenceDate": "2025-04-01"
  },
  {
    "name": "씨유진접센트레빌점",
    "lat": 37.7401468933443,
    "lng": 127.20020609145,
    "roadAddress": "경기도 남양주시 진접읍 부평로 42, 상가동 1층 125호, 125-1호(진접센트레빌시티1단지상가)",
    "address": "경기도 남양주시 진접읍 부평로 42, 상가동 1층 125호, 125-1호(진접센트레빌시티1단지상가)",
    "businessStatus": "영업",
    "hasTrashBag": true,
    "hasSpecialBag": false,
    "hasLargeWasteSticker": false,
    "adminVerified": false,
    "dataReferenceDate": "2025-04-01"
  },
  {
    "name": "GS25 남양주 신우점",
    "lat": 37.7292971542065,
    "lng": 127.191642314187,
    "roadAddress": "경기도 남양주시 진접읍 금강로 1553-21, 105/106호",
    "address": "경기도 남양주시 진접읍 금강로 1553-21, 105/106호",
    "businessStatus": "영업",
    "hasTrashBag": true,
    "hasSpecialBag": false,
    "hasLargeWasteSticker": false,
    "adminVerified": false,
    "dataReferenceDate": "2025-04-01"
  },
  {
    "name": "세븐일레븐남양주 진벌리점",
    "lat": 37.7445313360952,
    "lng": 127.213815570799,
    "roadAddress": "경기도 남양주시 진접읍 진벌로 75",
    "address": "경기도 남양주시 진접읍 진벌로 75",
    "businessStatus": "영업",
    "hasTrashBag": true,
    "hasSpecialBag": false,
    "hasLargeWasteSticker": false,
    "adminVerified": false,
    "dataReferenceDate": "2025-04-01"
  },
  {
    "name": "GS25 진접부평리점",
    "lat": 37.7485225846249,
    "lng": 127.199232076974,
    "roadAddress": "경기도 남양주시 진접읍 부마로 49-1",
    "address": "경기도 남양주시 진접읍 부마로 49-1",
    "businessStatus": "영업",
    "hasTrashBag": true,
    "hasSpecialBag": false,
    "hasLargeWasteSticker": false,
    "adminVerified": false,
    "dataReferenceDate": "2025-04-01"
  },
  {
    "name": "㈜한샘할인마트",
    "lat": 37.6905591230823,
    "lng": 127.214351439034,
    "roadAddress": "경기도 남양주시 오남읍 진건오남로 650, 2층",
    "address": "경기도 남양주시 오남읍 진건오남로 650, 2층",
    "businessStatus": "영업",
    "hasTrashBag": true,
    "hasSpecialBag": false,
    "hasLargeWasteSticker": false,
    "adminVerified": false,
    "dataReferenceDate": "2025-04-01"
  },
  {
    "name": "명당편의점",
    "lat": 37.690590092197,
    "lng": 127.16301033579,
    "roadAddress": "경기도 남양주시 진접읍 금강로 1010-1",
    "address": "경기도 남양주시 진접읍 금강로 1010-1",
    "businessStatus": "영업",
    "hasTrashBag": true,
    "hasSpecialBag": false,
    "hasLargeWasteSticker": false,
    "adminVerified": false,
    "dataReferenceDate": "2025-04-01"
  },
  {
    "name": "씨유오남성호스타점",
    "lat": 37.7058350918294,
    "lng": 127.199915874575,
    "roadAddress": "경기도 남양주시 오남읍 진건오남로 884번길 22-33",
    "address": "경기도 남양주시 오남읍 진건오남로 884번길 22-33",
    "businessStatus": "영업",
    "hasTrashBag": true,
    "hasSpecialBag": false,
    "hasLargeWasteSticker": false,
    "adminVerified": false,
    "dataReferenceDate": "2025-04-01"
  },
  {
    "name": "㈜우진프라스틱",
    "lat": 37.7513017159653,
    "lng": 127.232756189014,
    "roadAddress": "경기도 남양주시 진접읍 팔야리 833-5",
    "address": "경기도 남양주시 진접읍 팔야리 833-5",
    "businessStatus": "영업",
    "hasTrashBag": true,
    "hasSpecialBag": false,
    "hasLargeWasteSticker": false,
    "adminVerified": false,
    "dataReferenceDate": "2025-04-01"
  },
  {
    "name": "씨유 오남파라다이스빌점",
    "lat": 37.685954075621,
    "lng": 127.213695257696,
    "roadAddress": "경기도 남양주시 오남읍 진건오남로 596-18, 상가동 104호",
    "address": "경기도 남양주시 오남읍 진건오남로 596-18, 상가동 104호",
    "businessStatus": "영업",
    "hasTrashBag": true,
    "hasSpecialBag": false,
    "hasLargeWasteSticker": false,
    "adminVerified": false,
    "dataReferenceDate": "2025-04-01"
  },
  {
    "name": "지웰마트",
    "lat": 37.7191867818919,
    "lng": 127.197508756604,
    "roadAddress": "경기도 남양주시 진접읍 해밀예당3로 104, 근린생활시설동 103-1호(신영지웰아파트)",
    "address": "경기도 남양주시 진접읍 해밀예당3로 104, 근린생활시설동 103-1호(신영지웰아파트)",
    "businessStatus": "영업",
    "hasTrashBag": true,
    "hasSpecialBag": false,
    "hasLargeWasteSticker": false,
    "adminVerified": false,
    "dataReferenceDate": "2025-04-01"
  },
  {
    "name": "씨유진접산호점",
    "lat": 37.7263776977612,
    "lng": 127.193708569525,
    "roadAddress": "경기도 남양주시 진접읍 금강로 1530-16(정광산호아파트상가 101,102,103호)",
    "address": "경기도 남양주시 진접읍 금강로 1530-16(정광산호아파트상가 101,102,103호)",
    "businessStatus": "영업",
    "hasTrashBag": true,
    "hasSpecialBag": false,
    "hasLargeWasteSticker": false,
    "adminVerified": false,
    "dataReferenceDate": "2025-04-01"
  },
  {
    "name": "㈜세계로유통오남점",
    "lat": 37.6994693673535,
    "lng": 127.20054363791,
    "roadAddress": "경기도 남양주시 오남읍 양지리 114-1",
    "address": "경기도 남양주시 오남읍 양지리 114-1",
    "businessStatus": "영업",
    "hasTrashBag": true,
    "hasSpecialBag": false,
    "hasLargeWasteSticker": false,
    "adminVerified": false,
    "dataReferenceDate": "2025-04-01"
  },
  {
    "name": "세븐일레븐 남양주경복점",
    "lat": 37.7333885410452,
    "lng": 127.211760146915,
    "roadAddress": "경기도 남양주시 진접읍 경복대로 420, 1층1,2,3호",
    "address": "경기도 남양주시 진접읍 경복대로 420, 1층1,2,3호",
    "businessStatus": "영업",
    "hasTrashBag": true,
    "hasSpecialBag": false,
    "hasLargeWasteSticker": false,
    "adminVerified": false,
    "dataReferenceDate": "2025-04-01"
  },
  {
    "name": "CU진접내각점",
    "lat": 37.7051100659572,
    "lng": 127.167987182476,
    "roadAddress": "경기도 남양주시 진접읍 내각1로 101",
    "address": "경기도 남양주시 진접읍 내각1로 101",
    "businessStatus": "영업",
    "hasTrashBag": true,
    "hasSpecialBag": false,
    "hasLargeWasteSticker": false,
    "adminVerified": false,
    "dataReferenceDate": "2025-04-01"
  },
  {
    "name": "씨스페이스 시예랑펜션점",
    "lat": 37.6948811206692,
    "lng": 127.223036566342,
    "roadAddress": "경기도 남양주시 오남읍 팔현로 87, 다동",
    "address": "경기도 남양주시 오남읍 팔현로 87, 다동",
    "businessStatus": "영업",
    "hasTrashBag": true,
    "hasSpecialBag": false,
    "hasLargeWasteSticker": false,
    "adminVerified": false,
    "dataReferenceDate": "2025-04-01"
  },
  {
    "name": "GS25 진접부영",
    "lat": 37.7130814084098,
    "lng": 127.199079530901,
    "roadAddress": "경기도 남양주시 진접읍 해밀예당3로 36, 상가동 105호(부영사랑으로아파트)",
    "address": "경기도 남양주시 진접읍 해밀예당3로 36, 상가동 105호(부영사랑으로아파트)",
    "businessStatus": "영업",
    "hasTrashBag": true,
    "hasSpecialBag": false,
    "hasLargeWasteSticker": false,
    "adminVerified": false,
    "dataReferenceDate": "2025-04-01"
  },
  {
    "name": "세븐일레븐 남양주오남점",
    "lat": 37.6981150425111,
    "lng": 127.203059168711,
    "roadAddress": "경기도 남양주시 오남읍 진건오남로 800",
    "address": "경기도 남양주시 오남읍 진건오남로 800",
    "businessStatus": "영업",
    "hasTrashBag": true,
    "hasSpecialBag": false,
    "hasLargeWasteSticker": false,
    "adminVerified": false,
    "dataReferenceDate": "2025-04-01"
  },
  {
    "name": "마을슈퍼",
    "lat": 37.7601339975116,
    "lng": 127.192432935108,
    "roadAddress": "경기도 남양주시 진접읍 부마로 200-1",
    "address": "경기도 남양주시 진접읍 부마로 200-1",
    "businessStatus": "영업",
    "hasTrashBag": true,
    "hasSpecialBag": false,
    "hasLargeWasteSticker": false,
    "adminVerified": false,
    "dataReferenceDate": "2025-04-01"
  },
  {
    "name": "씨유 진접휴먼시아점",
    "lat": 37.7132631292345,
    "lng": 127.19833421461,
    "roadAddress": "경기도 남양주시 진접읍 해밀예당3로 39, 상가동 1층 102호, 103호(휴먼시아17단지아파트)",
    "address": "경기도 남양주시 진접읍 해밀예당3로 39, 상가동 1층 102호, 103호(휴먼시아17단지아파트)",
    "businessStatus": "영업",
    "hasTrashBag": true,
    "hasSpecialBag": false,
    "hasLargeWasteSticker": false,
    "adminVerified": false,
    "dataReferenceDate": "2025-04-01"
  },
  {
    "name": "세븐일레븐(남양주진접점)",
    "lat": 37.7148987825528,
    "lng": 127.198477735113,
    "roadAddress": "경기도 남양주시 진접읍 해밀예당3로 56, 101호(폴리프라자Ⅲ)",
    "address": "경기도 남양주시 진접읍 해밀예당3로 56, 101호(폴리프라자Ⅲ)",
    "businessStatus": "영업",
    "hasTrashBag": true,
    "hasSpecialBag": false,
    "hasLargeWasteSticker": false,
    "adminVerified": false,
    "dataReferenceDate": "2025-04-01"
  },
  {
    "name": "씨유(CU)오남아이파크점",
    "lat": 37.6965420346623,
    "lng": 127.199574001646,
    "roadAddress": "경기도 남양주시 오남읍 오남리 891 오남아이파크 상가동 105, 106호",
    "address": "경기도 남양주시 오남읍 오남리 891 오남아이파크 상가동 105, 106호",
    "businessStatus": "영업",
    "hasTrashBag": true,
    "hasSpecialBag": false,
    "hasLargeWasteSticker": false,
    "adminVerified": false,
    "dataReferenceDate": "2025-04-01"
  },
  {
    "name": "진접농업협동조합 하나로마트사업소",
    "lat": 37.7112459531024,
    "lng": 127.186171542711,
    "roadAddress": "경기도 남양주시 진접읍 해밀예당1로 28",
    "address": "경기도 남양주시 진접읍 해밀예당1로 28",
    "businessStatus": "영업",
    "hasTrashBag": true,
    "hasSpecialBag": false,
    "hasLargeWasteSticker": false,
    "adminVerified": false,
    "dataReferenceDate": "2025-04-01"
  },
  {
    "name": "지에스(GS25)광릉점",
    "lat": 37.742710610814,
    "lng": 127.199027590535,
    "roadAddress": "경기도 남양주시 진접읍 광릉내로 30",
    "address": "경기도 남양주시 진접읍 광릉내로 30",
    "businessStatus": "영업",
    "hasTrashBag": true,
    "hasSpecialBag": false,
    "hasLargeWasteSticker": false,
    "adminVerified": false,
    "dataReferenceDate": "2025-04-01"
  },
  {
    "name": "세븐일레븐 베어스타운점",
    "lat": 37.7564376670729,
    "lng": 127.218400098967,
    "roadAddress": "경기도 남양주시 진접읍 금강로 1967",
    "address": "경기도 남양주시 진접읍 금강로 1967",
    "businessStatus": "영업",
    "hasTrashBag": true,
    "hasSpecialBag": false,
    "hasLargeWasteSticker": false,
    "adminVerified": false,
    "dataReferenceDate": "2025-04-01"
  },
  {
    "name": "GS25 오남두산점",
    "lat": 37.6963240502445,
    "lng": 127.204279316868,
    "roadAddress": "경기도 남양주시 오남읍 진건오남로 781-17, 상가동 104,105,106호",
    "address": "경기도 남양주시 오남읍 진건오남로 781-17, 상가동 104,105,106호",
    "businessStatus": "영업",
    "hasTrashBag": true,
    "hasSpecialBag": false,
    "hasLargeWasteSticker": false,
    "adminVerified": false,
    "dataReferenceDate": "2025-04-01"
  },
  {
    "name": "이마트24 오남양지로점",
    "lat": 37.7031827488804,
    "lng": 127.191869780223,
    "roadAddress": "경기도 남양주시 오남읍 양지로 316, 3,4호",
    "address": "경기도 남양주시 오남읍 양지로 316, 3,4호",
    "businessStatus": "영업",
    "hasTrashBag": true,
    "hasSpecialBag": false,
    "hasLargeWasteSticker": false,
    "adminVerified": false,
    "dataReferenceDate": "2025-04-01"
  },
  {
    "name": "한남체인(정호식품)",
    "lat": 37.7045191848711,
    "lng": 127.166733464694,
    "roadAddress": "경기도 남양주시 진접읍 내각1로 90, C동1층, B동지층",
    "address": "경기도 남양주시 진접읍 내각1로 90, C동1층, B동지층",
    "businessStatus": "영업",
    "hasTrashBag": true,
    "hasSpecialBag": false,
    "hasLargeWasteSticker": false,
    "adminVerified": false,
    "dataReferenceDate": "2025-04-01"
  },
  {
    "name": "GS25 금곡산단점",
    "lat": 37.7156353450479,
    "lng": 127.209049994385,
    "roadAddress": "경기도 남양주시 진접읍 금곡리 774 나동 1층",
    "address": "경기도 남양주시 진접읍 금곡리 774 나동 1층",
    "businessStatus": "영업",
    "hasTrashBag": true,
    "hasSpecialBag": false,
    "hasLargeWasteSticker": false,
    "adminVerified": false,
    "dataReferenceDate": "2025-04-01"
  },
  {
    "name": "세븐일레븐 오남양지점",
    "lat": 37.7098569140082,
    "lng": 127.20429649948,
    "roadAddress": "경기도 남양주시 오남읍 경복대로 118-2",
    "address": "경기도 남양주시 오남읍 경복대로 118-2",
    "businessStatus": "영업",
    "hasTrashBag": true,
    "hasSpecialBag": false,
    "hasLargeWasteSticker": false,
    "adminVerified": false,
    "dataReferenceDate": "2025-04-01"
  },
  {
    "name": "세븐일레븐 진접금곡점",
    "lat": 37.7192548681911,
    "lng": 127.201886456307,
    "roadAddress": "경기도 남양주시 진접읍 해밀예당1로190번길 28-10, 1층 101호(명지하우스)",
    "address": "경기도 남양주시 진접읍 해밀예당1로190번길 28-10, 1층 101호(명지하우스)",
    "businessStatus": "영업",
    "hasTrashBag": true,
    "hasSpecialBag": false,
    "hasLargeWasteSticker": false,
    "adminVerified": false,
    "dataReferenceDate": "2025-04-01"
  },
  {
    "name": "지에스(GS)25 진접행복점",
    "lat": 37.7281601768099,
    "lng": 127.194146762776,
    "roadAddress": "경기도 남양주시 진접읍 금강로 1530-31, 3호(남양주장현5 2BL 행복주택 근린생활시설)",
    "address": "경기도 남양주시 진접읍 금강로 1530-31, 3호(남양주장현5 2BL 행복주택 근린생활시설)",
    "businessStatus": "영업",
    "hasTrashBag": true,
    "hasSpecialBag": false,
    "hasLargeWasteSticker": false,
    "adminVerified": false,
    "dataReferenceDate": "2025-04-01"
  },
  {
    "name": "세븐일레븐 오남어람점",
    "lat": 37.6811969416901,
    "lng": 127.210274684689,
    "roadAddress": "경기도 남양주시 오남읍 진건오남로536번길 3",
    "address": "경기도 남양주시 오남읍 진건오남로536번길 3",
    "businessStatus": "영업",
    "hasTrashBag": true,
    "hasSpecialBag": false,
    "hasLargeWasteSticker": false,
    "adminVerified": false,
    "dataReferenceDate": "2025-04-01"
  },
  {
    "name": "세븐일레븐 진접센터점",
    "lat": 37.7116338569202,
    "lng": 127.18677596952,
    "roadAddress": "경기도 남양주시 진접읍 해밀예당1로 30-9, 101,102호(폴리프라자1)",
    "address": "경기도 남양주시 진접읍 해밀예당1로 30-9, 101,102호(폴리프라자1)",
    "businessStatus": "영업",
    "hasTrashBag": true,
    "hasSpecialBag": false,
    "hasLargeWasteSticker": false,
    "adminVerified": false,
    "dataReferenceDate": "2025-04-01"
  },
  {
    "name": "지에스(GS)25 진접역점",
    "lat": 37.719728445284,
    "lng": 127.20208124053,
    "roadAddress": "경기도 남양주시 진접읍 해밀예당1로190번길 28-1",
    "address": "경기도 남양주시 진접읍 해밀예당1로190번길 28-1",
    "businessStatus": "영업",
    "hasTrashBag": true,
    "hasSpecialBag": false,
    "hasLargeWasteSticker": false,
    "adminVerified": false,
    "dataReferenceDate": "2025-04-01"
  },
  {
    "name": "씨유(CU)진접원일점",
    "lat": 37.7075909226501,
    "lng": 127.16432438314,
    "roadAddress": "경기도 남양주시 진접읍 내각1로73번안길 25, 1층 101,102호",
    "address": "경기도 남양주시 진접읍 내각1로73번안길 25, 1층 101,102호",
    "businessStatus": "영업",
    "hasTrashBag": true,
    "hasSpecialBag": false,
    "hasLargeWasteSticker": false,
    "adminVerified": false,
    "dataReferenceDate": "2025-04-01"
  },
  {
    "name": "세븐일레븐 내곡휴게소점",
    "lat": 37.6898932940821,
    "lng": 127.162867769276,
    "roadAddress": "경기도 남양주시 진접읍 금강로 1010-18",
    "address": "경기도 남양주시 진접읍 금강로 1010-18",
    "businessStatus": "영업",
    "hasTrashBag": true,
    "hasSpecialBag": false,
    "hasLargeWasteSticker": false,
    "adminVerified": false,
    "dataReferenceDate": "2025-04-01"
  },
  {
    "name": "세븐일레븐 광릉테크노밸리점",
    "lat": 37.7516500785986,
    "lng": 127.22951506505,
    "roadAddress": "경기도 남양주시 진접읍 팔야로 194, 101호, 102호",
    "address": "경기도 남양주시 진접읍 팔야로 194, 101호, 102호",
    "businessStatus": "영업",
    "hasTrashBag": true,
    "hasSpecialBag": false,
    "hasLargeWasteSticker": false,
    "adminVerified": false,
    "dataReferenceDate": "2025-04-01"
  },
  {
    "name": "씨유진접스마트점",
    "lat": 37.7162935864736,
    "lng": 127.203336401247,
    "roadAddress": "경기도 남양주시 진접읍 경복대로 199, 101호, 102호",
    "address": "경기도 남양주시 진접읍 경복대로 199, 101호, 102호",
    "businessStatus": "영업",
    "hasTrashBag": true,
    "hasSpecialBag": false,
    "hasLargeWasteSticker": false,
    "adminVerified": false,
    "dataReferenceDate": "2025-04-01"
  },
  {
    "name": "㈜이마트 진접점",
    "lat": 37.7088311438273,
    "lng": 127.182031057054,
    "roadAddress": "경기도 남양주시 진접읍 금강로유연들1길 154",
    "address": "경기도 남양주시 진접읍 금강로유연들1길 154",
    "businessStatus": "영업",
    "hasTrashBag": true,
    "hasSpecialBag": false,
    "hasLargeWasteSticker": false,
    "adminVerified": false,
    "dataReferenceDate": "2025-04-01"
  },
  {
    "name": "노브랜드 남양주 진접점",
    "lat": 37.7159593062275,
    "lng": 127.181837313095,
    "roadAddress": "경기도 남양주시 진접읍 봉현로14번길 11, 1층",
    "address": "경기도 남양주시 진접읍 봉현로14번길 11, 1층",
    "businessStatus": "영업",
    "hasTrashBag": true,
    "hasSpecialBag": false,
    "hasLargeWasteSticker": false,
    "adminVerified": false,
    "dataReferenceDate": "2025-04-01"
  },
  {
    "name": "노브랜드 남양주 오남점",
    "lat": 37.6790350266263,
    "lng": 127.208815752696,
    "roadAddress": "경기도 남양주시 오남읍 진건오남로 506",
    "address": "경기도 남양주시 오남읍 진건오남로 506",
    "businessStatus": "영업",
    "hasTrashBag": true,
    "hasSpecialBag": false,
    "hasLargeWasteSticker": false,
    "adminVerified": false,
    "dataReferenceDate": "2025-04-01"
  },
  {
    "name": "GS25 오남푸른솔",
    "lat": 37.6942786430889,
    "lng": 127.210132815568,
    "roadAddress": "경기도 남양주시 오남읍 진건오남로 735-17, 110동 107~108호",
    "address": "경기도 남양주시 오남읍 진건오남로 735-17, 110동 107~108호",
    "businessStatus": "영업",
    "hasTrashBag": true,
    "hasSpecialBag": false,
    "hasLargeWasteSticker": false,
    "adminVerified": false,
    "dataReferenceDate": "2025-04-01"
  },
  {
    "name": "씨유 오남양지점",
    "lat": 37.6928991969368,
    "lng": 127.20016810914,
    "roadAddress": "경기도 남양주시 오남읍 양지로 173, 1동 101호",
    "address": "경기도 남양주시 오남읍 양지로 173, 1동 101호",
    "businessStatus": "영업",
    "hasTrashBag": true,
    "hasSpecialBag": false,
    "hasLargeWasteSticker": false,
    "adminVerified": false,
    "dataReferenceDate": "2025-04-01"
  },
  {
    "name": "이마트24 오남한신점",
    "lat": 37.6807887893284,
    "lng": 127.209470126858,
    "roadAddress": "경기도 남양주시 오남읍 진건오남로 527, 103호",
    "address": "경기도 남양주시 오남읍 진건오남로 527, 103호",
    "businessStatus": "영업",
    "hasTrashBag": true,
    "hasSpecialBag": false,
    "hasLargeWasteSticker": false,
    "adminVerified": false,
    "dataReferenceDate": "2025-04-01"
  },
  {
    "name": "씨유 뉴장현주공점",
    "lat": 37.7148097275293,
    "lng": 127.182205938295,
    "roadAddress": "경기도 남양주시 진접읍 봉현로 2, 에이동 103호(장현주공아파트)",
    "address": "경기도 남양주시 진접읍 봉현로 2, 에이동 103호(장현주공아파트)",
    "businessStatus": "영업",
    "hasTrashBag": true,
    "hasSpecialBag": false,
    "hasLargeWasteSticker": false,
    "adminVerified": false,
    "dataReferenceDate": "2025-04-01"
  },
  {
    "name": "이마트24 진접물류센터점",
    "lat": 37.7105185393558,
    "lng": 127.175639844744,
    "roadAddress": "경기도 남양주시 진접읍 금강로 1283",
    "address": "경기도 남양주시 진접읍 금강로 1283",
    "businessStatus": "영업",
    "hasTrashBag": true,
    "hasSpecialBag": false,
    "hasLargeWasteSticker": false,
    "adminVerified": false,
    "dataReferenceDate": "2025-04-01"
  },
  {
    "name": "지에스25남양주타운점",
    "lat": 37.718670366462,
    "lng": 127.185572429673,
    "roadAddress": "경기도 남양주시 진접읍 장현천로10번길 9, 1층 일부",
    "address": "경기도 남양주시 진접읍 장현천로10번길 9, 1층 일부",
    "businessStatus": "영업",
    "hasTrashBag": true,
    "hasSpecialBag": false,
    "hasLargeWasteSticker": false,
    "adminVerified": false,
    "dataReferenceDate": "2025-04-01"
  },
  {
    "name": "세븐일레븐 남양주연평리점",
    "lat": 37.7042693775193,
    "lng": 127.180597535339,
    "roadAddress": "경기도 남양주시 진접읍 양진로 956, 1동 102호 일부(아름담주건축물)",
    "address": "경기도 남양주시 진접읍 양진로 956, 1동 102호 일부(아름담주건축물)",
    "businessStatus": "영업",
    "hasTrashBag": true,
    "hasSpecialBag": false,
    "hasLargeWasteSticker": false,
    "adminVerified": false,
    "dataReferenceDate": "2025-04-01"
  },
  {
    "name": "씨스페이스 진접역",
    "lat": 37.7183633779893,
    "lng": 127.203707612702,
    "roadAddress": "경기도 남양주시 진접읍 해밀예당2로 145번길 3-9, 101호",
    "address": "경기도 남양주시 진접읍 해밀예당2로 145번길 3-9, 101호",
    "businessStatus": "영업",
    "hasTrashBag": true,
    "hasSpecialBag": false,
    "hasLargeWasteSticker": false,
    "adminVerified": false,
    "dataReferenceDate": "2025-04-01"
  },
  {
    "name": "세븐일레븐 남양주장현점",
    "lat": 37.7158763632996,
    "lng": 127.179224440985,
    "roadAddress": "경기도 남양주시 진접읍 장현로47번길 6-2, 1층",
    "address": "경기도 남양주시 진접읍 장현로47번길 6-2, 1층",
    "businessStatus": "영업",
    "hasTrashBag": true,
    "hasSpecialBag": false,
    "hasLargeWasteSticker": false,
    "adminVerified": false,
    "dataReferenceDate": "2025-04-01"
  },
  {
    "name": "세븐일레븐 진접센트레빌점",
    "lat": 37.7405229436481,
    "lng": 127.198990419674,
    "roadAddress": "경기도 남양주시 진접읍 부평로 31, 1층 105, 106호",
    "address": "경기도 남양주시 진접읍 부평로 31, 1층 105, 106호",
    "businessStatus": "영업",
    "hasTrashBag": true,
    "hasSpecialBag": false,
    "hasLargeWasteSticker": false,
    "adminVerified": false,
    "dataReferenceDate": "2025-04-01"
  },
  {
    "name": "씨유(CU) 진접팔야리점",
    "lat": 37.7519574253953,
    "lng": 127.229315850201,
    "roadAddress": "경기도 남양주시 진접읍 팔야로 193, 1층",
    "address": "경기도 남양주시 진접읍 팔야로 193, 1층",
    "businessStatus": "영업",
    "hasTrashBag": true,
    "hasSpecialBag": false,
    "hasLargeWasteSticker": false,
    "adminVerified": false,
    "dataReferenceDate": "2025-04-01"
  },
  {
    "name": "씨유 오남호수공원점",
    "lat": 37.6941948995466,
    "lng": 127.215004904061,
    "roadAddress": "경기도 남양주시 오남읍 진건오남로숫돌1길 1",
    "address": "경기도 남양주시 오남읍 진건오남로숫돌1길 1",
    "businessStatus": "영업",
    "hasTrashBag": true,
    "hasSpecialBag": false,
    "hasLargeWasteSticker": false,
    "adminVerified": false,
    "dataReferenceDate": "2025-04-01"
  },
  {
    "name": "㈜다산식자재마트",
    "lat": 37.6827155781754,
    "lng": 127.209644800698,
    "roadAddress": "경기도 남양주시 오남읍 진건오남로 549, 1층",
    "address": "경기도 남양주시 오남읍 진건오남로 549, 1층",
    "businessStatus": "영업",
    "hasTrashBag": true,
    "hasSpecialBag": false,
    "hasLargeWasteSticker": false,
    "adminVerified": false,
    "dataReferenceDate": "2025-04-01"
  },
  {
    "name": "세븐일레븐(진접 삼성점)",
    "lat": 37.72049114030408,
    "lng": 127.20227794763952,
    "roadAddress": "경기도 남양주시 진접읍 해밀예당1호 219, 105호(삼성프라자)",
    "address": "경기도 남양주시 진접읍 해밀예당1호 219, 105호(삼성프라자)",
    "businessStatus": "영업",
    "hasTrashBag": true,
    "hasSpecialBag": false,
    "hasLargeWasteSticker": false,
    "adminVerified": false,
    "dataReferenceDate": "2025-04-01"
  },
  {
    "name": "세븐일레븐 내각한신점",
    "lat": 37.7071521309005,
    "lng": 127.16632895569,
    "roadAddress": "경기도 남양주시 진접읍 내각1로99번길 29, 1층 일부",
    "address": "경기도 남양주시 진접읍 내각1로99번길 29, 1층 일부",
    "businessStatus": "영업",
    "hasTrashBag": true,
    "hasSpecialBag": false,
    "hasLargeWasteSticker": false,
    "adminVerified": false,
    "dataReferenceDate": "2025-04-01"
  },
  {
    "name": "이마트24 금곡산단점",
    "lat": 37.7129383029424,
    "lng": 127.214210613996,
    "roadAddress": "경기도 남양주시 진접읍 경복대로바람골길 41-17",
    "address": "경기도 남양주시 진접읍 경복대로바람골길 41-17",
    "businessStatus": "영업",
    "hasTrashBag": true,
    "hasSpecialBag": false,
    "hasLargeWasteSticker": false,
    "adminVerified": false,
    "dataReferenceDate": "2025-04-01"
  },
  {
    "name": "킹콩L백화점 남양주점",
    "lat": 37.7476263994361,
    "lng": 127.204333225716,
    "roadAddress": "경기도 남양주시 진접읍 금강로 1791-1",
    "address": "경기도 남양주시 진접읍 금강로 1791-1",
    "businessStatus": "영업",
    "hasTrashBag": true,
    "hasSpecialBag": false,
    "hasLargeWasteSticker": false,
    "adminVerified": false,
    "dataReferenceDate": "2025-04-01"
  },
  {
    "name": "농부마트",
    "lat": 37.7217934678044,
    "lng": 127.19447586633,
    "roadAddress": "경기도 남양주시 진접읍 해밀예당3로 144",
    "address": "경기도 남양주시 진접읍 해밀예당3로 144",
    "businessStatus": "영업",
    "hasTrashBag": true,
    "hasSpecialBag": false,
    "hasLargeWasteSticker": false,
    "adminVerified": false,
    "dataReferenceDate": "2025-04-01"
  },
  {
    "name": "씨유 오남쌍용점",
    "lat": 37.7015066149831,
    "lng": 127.190568562622,
    "roadAddress": "경기도 남양주시 오남읍 양지로319번길 17, 주건축물제1동 일부",
    "address": "경기도 남양주시 오남읍 양지로319번길 17, 주건축물제1동 일부",
    "businessStatus": "영업",
    "hasTrashBag": true,
    "hasSpecialBag": false,
    "hasLargeWasteSticker": false,
    "adminVerified": false,
    "dataReferenceDate": "2025-04-01"
  },
  {
    "name": "지에스25 오남신일점",
    "lat": 37.6783950895443,
    "lng": 127.214127013118,
    "roadAddress": "경기도 남양주시 오남읍 진건오남로 516-74, 상가동 1층 101호 (신일해피트리아파트)",
    "address": "경기도 남양주시 오남읍 진건오남로 516-74, 상가동 1층 101호 (신일해피트리아파트)",
    "businessStatus": "영업",
    "hasTrashBag": true,
    "hasSpecialBag": false,
    "hasLargeWasteSticker": false,
    "adminVerified": false,
    "dataReferenceDate": "2025-04-01"
  },
  {
    "name": "이마트24진접팔야점",
    "lat": 37.7492829994417,
    "lng": 127.217332330383,
    "roadAddress": "경기도 남양주시 진접읍 팔야로 83",
    "address": "경기도 남양주시 진접읍 팔야로 83",
    "businessStatus": "영업",
    "hasTrashBag": true,
    "hasSpecialBag": false,
    "hasLargeWasteSticker": false,
    "adminVerified": false,
    "dataReferenceDate": "2025-04-01"
  },
  {
    "name": "㈜지에스리테일 GS더프레시 남양주금곡점",
    "lat": 37.7142279471306,
    "lng": 127.198621456146,
    "roadAddress": "경기도 남양주시 진접읍 해밀예당3로 50",
    "address": "경기도 남양주시 진접읍 해밀예당3로 50",
    "businessStatus": "영업",
    "hasTrashBag": true,
    "hasSpecialBag": false,
    "hasLargeWasteSticker": false,
    "adminVerified": false,
    "dataReferenceDate": "2025-04-01"
  },
  {
    "name": "세븐일레븐 오남로드점",
    "lat": 37.6957100026499,
    "lng": 127.190910778056,
    "roadAddress": "경기도 남양주시 오남읍 양지로281번길 54, 1동 101호",
    "address": "경기도 남양주시 오남읍 양지로281번길 54, 1동 101호",
    "businessStatus": "영업",
    "hasTrashBag": true,
    "hasSpecialBag": false,
    "hasLargeWasteSticker": false,
    "adminVerified": false,
    "dataReferenceDate": "2025-04-01"
  },
  {
    "name": "지에스25 진접궁의문점",
    "lat": 37.7066018312866,
    "lng": 127.185750541682,
    "roadAddress": "경기도 남양주시 진접읍 양진로1020번길 32-1, 1층 101호(원일궁의문아파트(상가동))",
    "address": "경기도 남양주시 진접읍 양진로1020번길 32-1, 1층 101호(원일궁의문아파트(상가동))",
    "businessStatus": "영업",
    "hasTrashBag": true,
    "hasSpecialBag": false,
    "hasLargeWasteSticker": false,
    "adminVerified": false,
    "dataReferenceDate": "2025-04-01"
  },
  {
    "name": "세븐일레븐 남양주더샵점",
    "lat": 37.7375529855057,
    "lng": 127.197977758202,
    "roadAddress": "경기도 남양주시 진접읍 부평로48번길 140, 단지내상가 3동 101, 102호(더샵 남양주퍼스트시티)",
    "address": "경기도 남양주시 진접읍 부평로48번길 140, 단지내상가 3동 101, 102호(더샵 남양주퍼스트시티)",
    "businessStatus": "영업",
    "hasTrashBag": true,
    "hasSpecialBag": false,
    "hasLargeWasteSticker": false,
    "adminVerified": false,
    "dataReferenceDate": "2025-04-01"
  },
  {
    "name": "씨유 진접더샵점",
    "lat": 37.7375529855057,
    "lng": 127.197977758202,
    "roadAddress": "경기도 남양주시 진접읍 부평로48번길 140, 1동 B109호, B110호(더샵퍼스트시티 단지내상가)",
    "address": "경기도 남양주시 진접읍 부평로48번길 140, 1동 B109호, B110호(더샵퍼스트시티 단지내상가)",
    "businessStatus": "영업",
    "hasTrashBag": true,
    "hasSpecialBag": false,
    "hasLargeWasteSticker": false,
    "adminVerified": false,
    "dataReferenceDate": "2025-04-01"
  },
  {
    "name": "지에스25 오남역점",
    "lat": 37.70520525381707,
    "lng": 127.19313940955995,
    "roadAddress": "경기도 남양주시 오남읍 진건오남로 919 101,102호(미래로빌딩)",
    "address": "경기도 남양주시 오남읍 진건오남로 919 101,102호(미래로빌딩)",
    "businessStatus": "영업",
    "hasTrashBag": true,
    "hasSpecialBag": false,
    "hasLargeWasteSticker": false,
    "adminVerified": false,
    "dataReferenceDate": "2025-04-01"
  },
  {
    "name": "㈜이마트에브리데이 남양주진접점",
    "lat": 37.7372199582575,
    "lng": 127.200500438069,
    "roadAddress": "경기도 남양주시 진접읍 부평리 763-4 1층",
    "address": "경기도 남양주시 진접읍 부평리 763-4 1층",
    "businessStatus": "영업",
    "hasTrashBag": true,
    "hasSpecialBag": false,
    "hasLargeWasteSticker": false,
    "adminVerified": false,
    "dataReferenceDate": "2025-04-01"
  },
  {
    "name": "씨유 나눔진접점",
    "lat": 37.7351444194101,
    "lng": 127.19830340144,
    "roadAddress": "경기도 남양주시 진접읍 부평로48번길 110, 근린생활시설 2동 101,102호(진접 스타힐스)",
    "address": "경기도 남양주시 진접읍 부평로48번길 110, 근린생활시설 2동 101,102호(진접 스타힐스)",
    "businessStatus": "영업",
    "hasTrashBag": true,
    "hasSpecialBag": false,
    "hasLargeWasteSticker": false,
    "adminVerified": false,
    "dataReferenceDate": "2025-04-01"
  },
  {
    "name": "세븐일레븐 진접원일점",
    "lat": 37.7202520530265,
    "lng": 127.198817315568,
    "roadAddress": "경기도 남양주시 진접읍 해밀예당1로189번길 1, 상가동 1층 102호(원일플로라아파트)",
    "address": "경기도 남양주시 진접읍 해밀예당1로189번길 1, 상가동 1층 102호(원일플로라아파트)",
    "businessStatus": "영업",
    "hasTrashBag": true,
    "hasSpecialBag": false,
    "hasLargeWasteSticker": false,
    "adminVerified": false,
    "dataReferenceDate": "2025-04-01"
  },
  {
    "name": "이마트24 R 장현천로점",
    "lat": 37.7225406538645,
    "lng": 127.180474582394,
    "roadAddress": "경기도 남양주시 진접읍 장현천로 75, 1층",
    "address": "경기도 남양주시 진접읍 장현천로 75, 1층",
    "businessStatus": "영업",
    "hasTrashBag": true,
    "hasSpecialBag": false,
    "hasLargeWasteSticker": false,
    "adminVerified": false,
    "dataReferenceDate": "2025-04-01"
  },
  {
    "name": "비에이엠(BAM)",
    "lat": 37.7068246233261,
    "lng": 127.170432505977,
    "roadAddress": "경기도 남양주시 진접읍 금강로 1223(산정장)",
    "address": "경기도 남양주시 진접읍 금강로 1223(산정장)",
    "businessStatus": "영업",
    "hasTrashBag": true,
    "hasSpecialBag": false,
    "hasLargeWasteSticker": false,
    "adminVerified": false,
    "dataReferenceDate": "2025-04-01"
  },
  {
    "name": "㈜코리아세븐 진건오남점",
    "lat": 37.7054399484346,
    "lng": 127.198086904707,
    "roadAddress": "경기도 남양주시 오남읍 진건오남로884번길 23 101호,102호",
    "address": "경기도 남양주시 오남읍 진건오남로884번길 23 101호,102호",
    "businessStatus": "영업",
    "hasTrashBag": true,
    "hasSpecialBag": false,
    "hasLargeWasteSticker": false,
    "adminVerified": false,
    "dataReferenceDate": "2025-04-01"
  },
  {
    "name": "지에스25 진접신창점",
    "lat": 37.7443739565051,
    "lng": 127.2149442741,
    "roadAddress": "경기도 남양주시 진접읍 진벌로 85-1, 상가동 105,106호(신창비바패밀리아파트)",
    "address": "경기도 남양주시 진접읍 진벌로 85-1, 상가동 105,106호(신창비바패밀리아파트)",
    "businessStatus": "영업",
    "hasTrashBag": true,
    "hasSpecialBag": false,
    "hasLargeWasteSticker": false,
    "adminVerified": false,
    "dataReferenceDate": "2025-04-01"
  },
  {
    "name": "지에스더프레시(남양주진접점)",
    "lat": 37.7142279471306,
    "lng": 127.198621456146,
    "roadAddress": "경기도 남양주시 진접읍 해밀예당3로 50",
    "address": "경기도 남양주시 진접읍 해밀예당3로 50",
    "businessStatus": "영업",
    "hasTrashBag": true,
    "hasSpecialBag": false,
    "hasLargeWasteSticker": false,
    "adminVerified": false,
    "dataReferenceDate": "2025-04-01"
  },
  {
    "name": "이마트24 SMART 남양주 양진로점",
    "lat": 37.6993759807658,
    "lng": 127.17866299494,
    "roadAddress": "경기도 남양주시 진접읍 양진로 898, 지1층 일부",
    "address": "경기도 남양주시 진접읍 양진로 898, 지1층 일부",
    "businessStatus": "영업",
    "hasTrashBag": true,
    "hasSpecialBag": false,
    "hasLargeWasteSticker": false,
    "adminVerified": false,
    "dataReferenceDate": "2025-04-01"
  },
  {
    "name": "세븐일레븐 진접팔야리점",
    "lat": 37.7481133714926,
    "lng": 127.217182084895,
    "roadAddress": "경기도 남양주시 진접읍 팔야로82번길 6",
    "address": "경기도 남양주시 진접읍 팔야로82번길 6",
    "businessStatus": "영업",
    "hasTrashBag": true,
    "hasSpecialBag": false,
    "hasLargeWasteSticker": false,
    "adminVerified": false,
    "dataReferenceDate": "2025-04-01"
  },
  {
    "name": "지에스(GS)25 오남동명점",
    "lat": 37.679216053358,
    "lng": 127.209414012203,
    "roadAddress": "경기도 남양주시 오남읍 진건오남로512번길 4, 104호",
    "address": "경기도 남양주시 오남읍 진건오남로512번길 4, 104호",
    "businessStatus": "영업",
    "hasTrashBag": true,
    "hasSpecialBag": false,
    "hasLargeWasteSticker": false,
    "adminVerified": false,
    "dataReferenceDate": "2025-04-01"
  },
  {
    "name": "주식회사 이엠마트",
    "lat": 37.7210313723837,
    "lng": 127.202219641869,
    "roadAddress": "경기도 남양주시 진접읍 해밀예당1로215번길 4, 1층 114,115,116,117,118,119,120,121호",
    "address": "경기도 남양주시 진접읍 해밀예당1로215번길 4, 1층 114,115,116,117,118,119,120,121호",
    "businessStatus": "영업",
    "hasTrashBag": true,
    "hasSpecialBag": false,
    "hasLargeWasteSticker": false,
    "adminVerified": false,
    "dataReferenceDate": "2025-04-01"
  },
  {
    "name": "지에스25 진접공단점",
    "lat": 37.7420285145836,
    "lng": 127.220865146513,
    "roadAddress": "경기도 남양주시 진접읍 진벌로 145, 가동 1층",
    "address": "경기도 남양주시 진접읍 진벌로 145, 가동 1층",
    "businessStatus": "영업",
    "hasTrashBag": true,
    "hasSpecialBag": false,
    "hasLargeWasteSticker": false,
    "adminVerified": false,
    "dataReferenceDate": "2025-04-01"
  },
  {
    "name": "씨유(CU) 진접예당점",
    "lat": 37.7253408945477,
    "lng": 127.208427423589,
    "roadAddress": "경기도 남양주시 진접읍 해밀예당1로 297, 상가동 105호(휴먼시아)",
    "address": "경기도 남양주시 진접읍 해밀예당1로 297, 상가동 105호(휴먼시아)",
    "businessStatus": "영업",
    "hasTrashBag": true,
    "hasSpecialBag": false,
    "hasLargeWasteSticker": false,
    "adminVerified": false,
    "dataReferenceDate": "2025-04-01"
  },
  {
    "name": "세븐일레븐 S4진접역점",
    "lat": 37.7196084023819,
    "lng": 127.203253816017,
    "roadAddress": "경기도 남양주시 진접읍 경복대로 지하 244, 지하1층 대합실",
    "address": "경기도 남양주시 진접읍 경복대로 지하 244, 지하1층 대합실",
    "businessStatus": "영업",
    "hasTrashBag": true,
    "hasSpecialBag": false,
    "hasLargeWasteSticker": false,
    "adminVerified": false,
    "dataReferenceDate": "2025-04-01"
  },
  {
    "name": "세븐일레븐 S4오남역점",
    "lat": 37.70522361112,
    "lng": 127.19110731941,
    "roadAddress": "경기도 남양주시 오남읍 진건오남로 지하 929, 지하1층 대합실",
    "address": "경기도 남양주시 오남읍 진건오남로 지하 929, 지하1층 대합실",
    "businessStatus": "영업",
    "hasTrashBag": true,
    "hasSpecialBag": false,
    "hasLargeWasteSticker": false,
    "adminVerified": false,
    "dataReferenceDate": "2025-04-01"
  },
  {
    "name": "지에스(GS)25 진접중앙점",
    "lat": 37.7122987492447,
    "lng": 127.186905679814,
    "roadAddress": "경기도 남양주시 진접읍 해밀예당1로 40, 1층 101호(화성프라자)",
    "address": "경기도 남양주시 진접읍 해밀예당1로 40, 1층 101호(화성프라자)",
    "businessStatus": "영업",
    "hasTrashBag": true,
    "hasSpecialBag": false,
    "hasLargeWasteSticker": false,
    "adminVerified": false,
    "dataReferenceDate": "2025-04-01"
  },
  {
    "name": "지에스(GS)25 진접예당점",
    "lat": 37.7220728632415,
    "lng": 127.204328003894,
    "roadAddress": "경기도 남양주시 진접읍 해밀예당1로235번길 15-1, 1층",
    "address": "경기도 남양주시 진접읍 해밀예당1로235번길 15-1, 1층",
    "businessStatus": "영업",
    "hasTrashBag": true,
    "hasSpecialBag": false,
    "hasLargeWasteSticker": false,
    "adminVerified": false,
    "dataReferenceDate": "2025-04-01"
  },
  {
    "name": "세븐일레븐 남양주오남진주점",
    "lat": 37.6872039642716,
    "lng": 127.21096258484,
    "roadAddress": "경기도 남양주시 오남읍 진건오남로 601, 1층 105호",
    "address": "경기도 남양주시 오남읍 진건오남로 601, 1층 105호",
    "businessStatus": "영업",
    "hasTrashBag": true,
    "hasSpecialBag": false,
    "hasLargeWasteSticker": false,
    "adminVerified": false,
    "dataReferenceDate": "2025-04-01"
  },
  {
    "name": "씨유 진접금강로점",
    "lat": 37.7501994054453,
    "lng": 127.210714995842,
    "roadAddress": "경기도 남양주시 진접읍 금강로 1865, 1층",
    "address": "경기도 남양주시 진접읍 금강로 1865, 1층",
    "businessStatus": "영업",
    "hasTrashBag": true,
    "hasSpecialBag": false,
    "hasLargeWasteSticker": false,
    "adminVerified": false,
    "dataReferenceDate": "2025-04-01"
  },
  {
    "name": "씨유장현중앙점",
    "lat": 37.7179495838836,
    "lng": 127.181583353222,
    "roadAddress": "경기도 남양주시 진접읍 장현로 83, 1층",
    "address": "경기도 남양주시 진접읍 장현로 83, 1층",
    "businessStatus": "영업",
    "hasTrashBag": true,
    "hasSpecialBag": false,
    "hasLargeWasteSticker": false,
    "adminVerified": false,
    "dataReferenceDate": "2025-04-01"
  },
  {
    "name": "세븐일레븐 남양주양지로점",
    "lat": 37.6921966895201,
    "lng": 127.201342432017,
    "roadAddress": "경기도 남양주시 오남읍 양지로 161, 나동 102호",
    "address": "경기도 남양주시 오남읍 양지로 161, 나동 102호",
    "businessStatus": "영업",
    "hasTrashBag": true,
    "hasSpecialBag": false,
    "hasLargeWasteSticker": false,
    "adminVerified": false,
    "dataReferenceDate": "2025-04-01"
  },
  {
    "name": "모두다 생활용품",
    "lat": 37.7209128170677,
    "lng": 127.186471354772,
    "roadAddress": "경기도 남양주시 진접읍 장현로 138, 1동 1층",
    "address": "경기도 남양주시 진접읍 장현로 138, 1동 1층",
    "businessStatus": "영업",
    "hasTrashBag": true,
    "hasSpecialBag": false,
    "hasLargeWasteSticker": false,
    "adminVerified": false,
    "dataReferenceDate": "2025-04-01"
  },
  {
    "name": "지에스(GS)25 진접해밀점",
    "lat": 37.7159330762428,
    "lng": 127.188611979399,
    "roadAddress": "경기도 남양주시 진접읍 해밀예당1로 79-1, 1층 104호. 105호(한솔빌딩)",
    "address": "경기도 남양주시 진접읍 해밀예당1로 79-1, 1층 104호. 105호(한솔빌딩)",
    "businessStatus": "영업",
    "hasTrashBag": true,
    "hasSpecialBag": false,
    "hasLargeWasteSticker": false,
    "adminVerified": false,
    "dataReferenceDate": "2025-04-01"
  },
  {
    "name": "이마트24 진접역점",
    "lat": 37.7202362463116,
    "lng": 127.200224971326,
    "roadAddress": "경기도 남양주시 진접읍 해밀예당1로189번길 14, 102호",
    "address": "경기도 남양주시 진접읍 해밀예당1로189번길 14, 102호",
    "businessStatus": "영업",
    "hasTrashBag": true,
    "hasSpecialBag": false,
    "hasLargeWasteSticker": false,
    "adminVerified": false,
    "dataReferenceDate": "2025-04-01"
  },
  {
    "name": "평촌슈퍼",
    "lat": 37.7535211757549,
    "lng": 127.197447480761,
    "roadAddress": "경기도 남양주시 진접읍 부마로 108",
    "address": "경기도 남양주시 진접읍 부마로 108",
    "businessStatus": "영업",
    "hasTrashBag": true,
    "hasSpecialBag": false,
    "hasLargeWasteSticker": false,
    "adminVerified": false,
    "dataReferenceDate": "2025-04-01"
  },
  {
    "name": "지에스25 진접타운점",
    "lat": 37.7097400557871,
    "lng": 127.188503741727,
    "roadAddress": "경기도 남양주시 진접읍 경복대로17번안길 68, 101호",
    "address": "경기도 남양주시 진접읍 경복대로17번안길 68, 101호",
    "businessStatus": "영업",
    "hasTrashBag": true,
    "hasSpecialBag": false,
    "hasLargeWasteSticker": false,
    "adminVerified": false,
    "dataReferenceDate": "2025-04-01"
  },
  {
    "name": "세븐일레븐 장현스카이마크점",
    "lat": 37.7183029771121,
    "lng": 127.184060979135,
    "roadAddress": "경기도 남양주시 진접읍 장현천로 19, 스카이마크91 102, 103호",
    "address": "경기도 남양주시 진접읍 장현천로 19, 스카이마크91 102, 103호",
    "businessStatus": "영업",
    "hasTrashBag": true,
    "hasSpecialBag": false,
    "hasLargeWasteSticker": false,
    "adminVerified": false,
    "dataReferenceDate": "2025-04-01"
  },
  {
    "name": "농부할인마트",
    "lat": 37.7172146754714,
    "lng": 127.179692341907,
    "roadAddress": "경기도 남양주시 진접읍 봉현로36번길 7, 2동 105호(삼신아파트 상가)",
    "address": "경기도 남양주시 진접읍 봉현로36번길 7, 2동 105호(삼신아파트 상가)",
    "businessStatus": "영업",
    "hasTrashBag": true,
    "hasSpecialBag": false,
    "hasLargeWasteSticker": false,
    "adminVerified": false,
    "dataReferenceDate": "2025-04-01"
  },
  {
    "name": "씨유 장현광명점",
    "lat": 37.7192492423478,
    "lng": 127.176656640683,
    "roadAddress": "경기도 남양주시 진접읍 봉현로 72",
    "address": "경기도 남양주시 진접읍 봉현로 72",
    "businessStatus": "영업",
    "hasTrashBag": true,
    "hasSpecialBag": false,
    "hasLargeWasteSticker": false,
    "adminVerified": false,
    "dataReferenceDate": "2025-04-01"
  },
  {
    "name": "㈜코리아세븐 진접금강펜트리움점",
    "lat": 37.7153891421936,
    "lng": 127.19876848089,
    "roadAddress": "경기도 남양주시 진접읍 해밀예당3로 66, 금강폔트리움 상가시설동 101-1, 101-2호",
    "address": "경기도 남양주시 진접읍 해밀예당3로 66, 금강폔트리움 상가시설동 101-1, 101-2호",
    "businessStatus": "영업",
    "hasTrashBag": true,
    "hasSpecialBag": false,
    "hasLargeWasteSticker": false,
    "adminVerified": false,
    "dataReferenceDate": "2025-04-01"
  },
  {
    "name": "세븐일레븐 오남롯데점",
    "lat": 37.6941687346271,
    "lng": 127.210631960486,
    "roadAddress": "경기도 남양주시 오남읍 진건오남로 719, 101호(영동빌딩)",
    "address": "경기도 남양주시 오남읍 진건오남로 719, 101호(영동빌딩)",
    "businessStatus": "영업",
    "hasTrashBag": true,
    "hasSpecialBag": false,
    "hasLargeWasteSticker": false,
    "adminVerified": false,
    "dataReferenceDate": "2025-04-01"
  },
  {
    "name": "지에스(GS)25 오남유호점",
    "lat": 37.6836377647548,
    "lng": 127.213789736346,
    "roadAddress": "경기도 남양주시 오남읍 진건오남로 564, 101호(유호아파트상가동)",
    "address": "경기도 남양주시 오남읍 진건오남로 564, 101호(유호아파트상가동)",
    "businessStatus": "영업",
    "hasTrashBag": true,
    "hasSpecialBag": false,
    "hasLargeWasteSticker": false,
    "adminVerified": false,
    "dataReferenceDate": "2025-04-01"
  },
  {
    "name": "지에스(GS)25 장현우경점",
    "lat": 37.719181759619,
    "lng": 127.183846063984,
    "roadAddress": "경기도 남양주시 진접읍 장현리 350-1 우경메디프라자 102",
    "address": "경기도 남양주시 진접읍 장현리 350-1 우경메디프라자 102",
    "businessStatus": "영업",
    "hasTrashBag": true,
    "hasSpecialBag": false,
    "hasLargeWasteSticker": false,
    "adminVerified": false,
    "dataReferenceDate": "2025-04-01"
  },
  {
    "name": "지에스(GS)25 진접퍼플점",
    "lat": 37.7255878083126,
    "lng": 127.192999833488,
    "roadAddress": "경기도 남양주시 진접읍 금강로 1530-12, 105,109호",
    "address": "경기도 남양주시 진접읍 금강로 1530-12, 105,109호",
    "businessStatus": "영업",
    "hasTrashBag": true,
    "hasSpecialBag": false,
    "hasLargeWasteSticker": false,
    "adminVerified": false,
    "dataReferenceDate": "2025-04-01"
  },
  {
    "name": "지에스(GS)25 오남현대점",
    "lat": 37.6986725136243,
    "lng": 127.199766353559,
    "roadAddress": "경기도 남양주시 오남읍 진건오남로797번길 28, 1층",
    "address": "경기도 남양주시 오남읍 진건오남로797번길 28, 1층",
    "businessStatus": "영업",
    "hasTrashBag": true,
    "hasSpecialBag": false,
    "hasLargeWasteSticker": false,
    "adminVerified": false,
    "dataReferenceDate": "2025-04-01"
  },
  {
    "name": "씨유 진접장현로점",
    "lat": 37.7200123433962,
    "lng": 127.184724536922,
    "roadAddress": "경기도 남양주시 진접읍 장현로 118,1층",
    "address": "경기도 남양주시 진접읍 장현로 118,1층",
    "businessStatus": "영업",
    "hasTrashBag": true,
    "hasSpecialBag": false,
    "hasLargeWasteSticker": false,
    "adminVerified": false,
    "dataReferenceDate": "2025-04-01"
  },
  {
    "name": "씨스페이스 라온점",
    "lat": 37.6935317904809,
    "lng": 127.233296717663,
    "roadAddress": "경기도 남양주시 오남읍 팔현로175번길 18, 1층 101호",
    "address": "경기도 남양주시 오남읍 팔현로175번길 18, 1층 101호",
    "businessStatus": "영업",
    "hasTrashBag": true,
    "hasSpecialBag": false,
    "hasLargeWasteSticker": false,
    "adminVerified": false,
    "dataReferenceDate": "2025-04-01"
  },
  {
    "name": "지에스(GS)25 진접캐슬점",
    "lat": 37.7208768093061,
    "lng": 127.187927066845,
    "roadAddress": "경기도 남양주시 진접읍 장현로 148-20",
    "address": "경기도 남양주시 진접읍 장현로 148-20",
    "businessStatus": "영업",
    "hasTrashBag": true,
    "hasSpecialBag": false,
    "hasLargeWasteSticker": false,
    "adminVerified": false,
    "dataReferenceDate": "2025-04-01"
  },
  {
    "name": "이마트24 진접광릉점",
    "lat": 37.7336913158411,
    "lng": 127.195239375584,
    "roadAddress": "경기도 남양주시 진접읍 금강로 1607,1층 101호",
    "address": "경기도 남양주시 진접읍 금강로 1607,1층 101호",
    "businessStatus": "영업",
    "hasTrashBag": true,
    "hasSpecialBag": false,
    "hasLargeWasteSticker": false,
    "adminVerified": false,
    "dataReferenceDate": "2025-04-01"
  },
  {
    "name": "세븐일레븐 오남빌리지점",
    "lat": 37.7043670191963,
    "lng": 127.193340332511,
    "roadAddress": "경기도 남양주시 오남읍 진건오남로929번길 18-1, 1층 좌측일부",
    "address": "경기도 남양주시 오남읍 진건오남로929번길 18-1, 1층 좌측일부",
    "businessStatus": "영업",
    "hasTrashBag": true,
    "hasSpecialBag": false,
    "hasLargeWasteSticker": false,
    "adminVerified": false,
    "dataReferenceDate": "2025-04-01"
  },
  {
    "name": "세븐일레븐 오남한양병원점",
    "lat": 37.6828508266939,
    "lng": 127.205025611821,
    "roadAddress": "경기도 남양주시 오남읍 양지로 47-35, 다동",
    "address": "경기도 남양주시 오남읍 양지로 47-35, 다동",
    "businessStatus": "영업",
    "hasTrashBag": true,
    "hasSpecialBag": false,
    "hasLargeWasteSticker": false,
    "adminVerified": false,
    "dataReferenceDate": "2025-04-01"
  },
  {
    "name": "지에스(GS)25 진접부마로점",
    "lat": 37.7535211757549,
    "lng": 127.197447480761,
    "roadAddress": "경기도 남양주시 진접읍 부마로 108,1층일부",
    "address": "경기도 남양주시 진접읍 부마로 108,1층일부",
    "businessStatus": "영업",
    "hasTrashBag": true,
    "hasSpecialBag": false,
    "hasLargeWasteSticker": false,
    "adminVerified": false,
    "dataReferenceDate": "2025-04-01"
  },
  {
    "name": "다산식자재마트",
    "lat": 37.7242556110552,
    "lng": 127.189850861571,
    "roadAddress": "경기도 남양주시 진접읍 장현로 181",
    "address": "경기도 남양주시 진접읍 장현로 181",
    "businessStatus": "영업",
    "hasTrashBag": true,
    "hasSpecialBag": false,
    "hasLargeWasteSticker": false,
    "adminVerified": false,
    "dataReferenceDate": "2025-04-01"
  },
  {
    "name": "지에스(GS)25 남양주본점",
    "lat": 37.6892702402772,
    "lng": 127.211728852164,
    "roadAddress": "경기도 남양주시 오남읍 진건오남로 629-1, 지하1층(진주상가)",
    "address": "경기도 남양주시 오남읍 진건오남로 629-1, 지하1층(진주상가)",
    "businessStatus": "영업",
    "hasTrashBag": true,
    "hasSpecialBag": false,
    "hasLargeWasteSticker": false,
    "adminVerified": false,
    "dataReferenceDate": "2025-04-01"
  },
  {
    "name": "이마트24 진접봉현로점",
    "lat": 37.7154141890695,
    "lng": 127.181153896461,
    "roadAddress": "경기도 남양주시 진접읍 봉현로 14,1층 일부",
    "address": "경기도 남양주시 진접읍 봉현로 14,1층 일부",
    "businessStatus": "영업",
    "hasTrashBag": true,
    "hasSpecialBag": false,
    "hasLargeWasteSticker": false,
    "adminVerified": false,
    "dataReferenceDate": "2025-04-01"
  },
  {
    "name": "㈜ 다비프레시",
    "lat": 37.7119179268843,
    "lng": 127.184029987382,
    "roadAddress": "경기도 남양주시 진접읍 진건오남로 1036, 2층",
    "address": "경기도 남양주시 진접읍 진건오남로 1036, 2층",
    "businessStatus": "영업",
    "hasTrashBag": true,
    "hasSpecialBag": false,
    "hasLargeWasteSticker": false,
    "adminVerified": false,
    "dataReferenceDate": "2025-04-01"
  },
  {
    "name": "지에스(GS)25 오남호수점",
    "lat": 37.6914107330778,
    "lng": 127.213999692868,
    "roadAddress": "경기도 남양주시 오남읍 진건오남로 653, 1층",
    "address": "경기도 남양주시 오남읍 진건오남로 653, 1층",
    "businessStatus": "영업",
    "hasTrashBag": true,
    "hasSpecialBag": false,
    "hasLargeWasteSticker": false,
    "adminVerified": false,
    "dataReferenceDate": "2025-04-01"
  },
  {
    "name": "씨유 내각본점",
    "lat": 37.7037155288678,
    "lng": 127.163442433665,
    "roadAddress": "경기도 남양주시 진접읍 내각1로 57-1, 1층",
    "address": "경기도 남양주시 진접읍 내각1로 57-1, 1층",
    "businessStatus": "영업",
    "hasTrashBag": true,
    "hasSpecialBag": false,
    "hasLargeWasteSticker": false,
    "adminVerified": false,
    "dataReferenceDate": "2025-04-01"
  },
  {
    "name": "국군복지단 포천지원본부(75사단 사령부 마트)",
    "lat": 37.7330725933931,
    "lng": 127.223033548847,
    "roadAddress": "경기도 남양주시 진접읍 진벌리 374-2",
    "address": "경기도 남양주시 진접읍 진벌리 374-2",
    "businessStatus": "영업",
    "hasTrashBag": true,
    "hasSpecialBag": false,
    "hasLargeWasteSticker": false,
    "adminVerified": false,
    "dataReferenceDate": "2025-04-01"
  },
  {
    "name": "중앙식자재마트",
    "lat": 37.7176159370173,
    "lng": 127.180891133907,
    "roadAddress": "경기도 남양주시 진접읍 장현로 77, 110~112호",
    "address": "경기도 남양주시 진접읍 장현로 77, 110~112호",
    "businessStatus": "영업",
    "hasTrashBag": true,
    "hasSpecialBag": false,
    "hasLargeWasteSticker": false,
    "adminVerified": false,
    "dataReferenceDate": "2025-04-01"
  },
  {
    "name": "액세스 모바일 & 하랄푸드(이플러스마트 내)",
    "lat": 37.7467273206944,
    "lng": 127.206300939572,
    "roadAddress": "경기도 남양주시 진접읍 광릉내로 112(이플러스)",
    "address": "경기도 남양주시 진접읍 광릉내로 112(이플러스)",
    "businessStatus": "영업",
    "hasTrashBag": true,
    "hasSpecialBag": false,
    "hasLargeWasteSticker": false,
    "adminVerified": false,
    "dataReferenceDate": "2025-04-01"
  },
  {
    "name": "지에스(GS)25 오남금호점",
    "lat": 37.6775792275687,
    "lng": 127.206821551876,
    "roadAddress": "경기도 남양주시 오남읍 진건오남로 472,102호",
    "address": "경기도 남양주시 오남읍 진건오남로 472,102호",
    "businessStatus": "영업",
    "hasTrashBag": true,
    "hasSpecialBag": false,
    "hasLargeWasteSticker": false,
    "adminVerified": false,
    "dataReferenceDate": "2025-04-01"
  },
  {
    "name": "블링블링",
    "lat": 37.7451493833453,
    "lng": 127.206600295759,
    "roadAddress": "경기도 남양주시 진접읍 광릉내로82번길 26",
    "address": "경기도 남양주시 진접읍 광릉내로82번길 26",
    "businessStatus": "영업",
    "hasTrashBag": true,
    "hasSpecialBag": false,
    "hasLargeWasteSticker": false,
    "adminVerified": false,
    "dataReferenceDate": "2025-04-01"
  },
  {
    "name": "씨유 오남스윗점",
    "lat": 37.6990761943477,
    "lng": 127.190594997754,
    "roadAddress": "경기도 남양주시 오남읍 양지로281번길 16-1, 제지층 101호(쌍용스윗닷홈아파트)",
    "address": "경기도 남양주시 오남읍 양지로281번길 16-1, 제지층 101호(쌍용스윗닷홈아파트)",
    "businessStatus": "영업",
    "hasTrashBag": true,
    "hasSpecialBag": false,
    "hasLargeWasteSticker": false,
    "adminVerified": false,
    "dataReferenceDate": "2025-04-01"
  },
  {
    "name": "씨유 남양주양지점",
    "lat": 37.6929006371477,
    "lng": 127.200168906685,
    "roadAddress": "경기도 남양주시 오납읍 경복대로 96",
    "address": "경기도 남양주시 오납읍 경복대로 96",
    "businessStatus": "영업",
    "hasTrashBag": true,
    "hasSpecialBag": false,
    "hasLargeWasteSticker": false,
    "adminVerified": false,
    "dataReferenceDate": "2025-04-01"
  },
  {
    "name": "이마트24 광릉내로점",
    "lat": 37.742710610814,
    "lng": 127.199027590535,
    "roadAddress": "경기도 남양주시 진접읍 광릉내로 30",
    "address": "경기도 남양주시 진접읍 광릉내로 30",
    "businessStatus": "영업",
    "hasTrashBag": true,
    "hasSpecialBag": false,
    "hasLargeWasteSticker": false,
    "adminVerified": false,
    "dataReferenceDate": "2025-04-01"
  },
  {
    "name": "지에스(GS)25 진접메디컬점",
    "lat": 37.7212379279485,
    "lng": 127.203445646396,
    "roadAddress": "경기도 남양주시 진접읍 해밀예당1로235번길 3-5, 104호",
    "address": "경기도 남양주시 진접읍 해밀예당1로235번길 3-5, 104호",
    "businessStatus": "영업",
    "hasTrashBag": true,
    "hasSpecialBag": false,
    "hasLargeWasteSticker": false,
    "adminVerified": false,
    "dataReferenceDate": "2025-04-01"
  },
  {
    "name": "씨유 내각상록점",
    "lat": 37.705085101351,
    "lng": 127.16754928729,
    "roadAddress": "경기도 남양주시 진접읍 내각1로 99, 1층",
    "address": "경기도 남양주시 진접읍 내각1로 99, 1층",
    "businessStatus": "영업",
    "hasTrashBag": true,
    "hasSpecialBag": false,
    "hasLargeWasteSticker": false,
    "adminVerified": false,
    "dataReferenceDate": "2025-04-01"
  },
  {
    "name": "지에스(GS)25 오남역점",
    "lat": 37.7052047149029,
    "lng": 127.193138387556,
    "roadAddress": "경기도 남양주시 오남읍 진건오남로 919, 101, 102호",
    "address": "경기도 남양주시 오남읍 진건오남로 919, 101, 102호",
    "businessStatus": "영업",
    "hasTrashBag": true,
    "hasSpecialBag": false,
    "hasLargeWasteSticker": false,
    "adminVerified": false,
    "dataReferenceDate": "2025-04-01"
  },
  {
    "name": "씨유 진접어울림점",
    "lat": 37.7148200989948,
    "lng": 127.186975752632,
    "roadAddress": "경기도 남양주시 진접읍 해밀예당1로 53, 101호, 102호",
    "address": "경기도 남양주시 진접읍 해밀예당1로 53, 101호, 102호",
    "businessStatus": "영업",
    "hasTrashBag": true,
    "hasSpecialBag": false,
    "hasLargeWasteSticker": false,
    "adminVerified": false,
    "dataReferenceDate": "2025-04-01"
  },
  {
    "name": "우리슈퍼",
    "lat": 37.653955325475,
    "lng": 127.306619111505,
    "roadAddress": "경기도 남양주시 화도읍 마석로 34, 1층",
    "address": "경기도 남양주시 화도읍 마석로 34, 1층",
    "businessStatus": "영업",
    "hasTrashBag": true,
    "hasSpecialBag": false,
    "hasLargeWasteSticker": false,
    "adminVerified": false,
    "dataReferenceDate": "2025-04-01"
  },
  {
    "name": "씨유 화도원광사점",
    "lat": 37.6634193729051,
    "lng": 127.297582601494,
    "roadAddress": "경기도 남양주시 화도읍 비룡로141번길 36, 1층",
    "address": "경기도 남양주시 화도읍 비룡로141번길 36, 1층",
    "businessStatus": "영업",
    "hasTrashBag": true,
    "hasSpecialBag": false,
    "hasLargeWasteSticker": false,
    "adminVerified": false,
    "dataReferenceDate": "2025-04-01"
  },
  {
    "name": "씨유 화도비룡로점",
    "lat": 37.6846361024388,
    "lng": 127.307142269236,
    "roadAddress": "경기도 남양주시 화도읍 비룡로 387, 1층",
    "address": "경기도 남양주시 화도읍 비룡로 387, 1층",
    "businessStatus": "영업",
    "hasTrashBag": true,
    "hasSpecialBag": false,
    "hasLargeWasteSticker": false,
    "adminVerified": false,
    "dataReferenceDate": "2025-04-01"
  },
  {
    "name": "세븐일레븐 화도녹촌",
    "lat": 37.6432724263055,
    "lng": 127.288683487022,
    "roadAddress": "경기도 남양주시 화도읍 녹촌로 142",
    "address": "경기도 남양주시 화도읍 녹촌로 142",
    "businessStatus": "영업",
    "hasTrashBag": true,
    "hasSpecialBag": false,
    "hasLargeWasteSticker": false,
    "adminVerified": false,
    "dataReferenceDate": "2025-04-01"
  },
  {
    "name": "스토리웨이 마석맞이방편의점",
    "lat": 37.6523558892506,
    "lng": 127.311850178148,
    "roadAddress": "경기도 남양주시 화도읍 마석중앙로 107, 마석역",
    "address": "경기도 남양주시 화도읍 마석중앙로 107, 마석역",
    "businessStatus": "영업",
    "hasTrashBag": true,
    "hasSpecialBag": false,
    "hasLargeWasteSticker": false,
    "adminVerified": false,
    "dataReferenceDate": "2025-04-01"
  },
  {
    "name": "화도농축수산",
    "lat": 37.647480574334,
    "lng": 127.307188742168,
    "roadAddress": "경기도 남양주시 화도읍 폭포로 37, 1층",
    "address": "경기도 남양주시 화도읍 폭포로 37, 1층",
    "businessStatus": "영업",
    "hasTrashBag": true,
    "hasSpecialBag": false,
    "hasLargeWasteSticker": false,
    "adminVerified": false,
    "dataReferenceDate": "2025-04-01"
  },
  {
    "name": "세븐일레븐 창현타운점",
    "lat": 37.647480574334,
    "lng": 127.307188742168,
    "roadAddress": "경기도 남양주시 화도읍 폭포로 37, 1층 101, 102호",
    "address": "경기도 남양주시 화도읍 폭포로 37, 1층 101, 102호",
    "businessStatus": "영업",
    "hasTrashBag": true,
    "hasSpecialBag": false,
    "hasLargeWasteSticker": false,
    "adminVerified": false,
    "dataReferenceDate": "2025-04-01"
  },
  {
    "name": "지에스(GS)25 창현두산점",
    "lat": 37.6473228083987,
    "lng": 127.301144925654,
    "roadAddress": "경기도 남양주시 화도읍 수레로1233번길 10, 두산아파트 상가 103, 104호",
    "address": "경기도 남양주시 화도읍 수레로1233번길 10, 두산아파트 상가 103, 104호",
    "businessStatus": "영업",
    "hasTrashBag": true,
    "hasSpecialBag": false,
    "hasLargeWasteSticker": false,
    "adminVerified": false,
    "dataReferenceDate": "2025-04-01"
  },
  {
    "name": "다산식자재마트 수동점",
    "lat": 37.7053329294554,
    "lng": 127.326412061688,
    "roadAddress": "경기도 남양주시 수동면 비룡로 750",
    "address": "경기도 남양주시 수동면 비룡로 750",
    "businessStatus": "영업",
    "hasTrashBag": true,
    "hasSpecialBag": false,
    "hasLargeWasteSticker": false,
    "adminVerified": false,
    "dataReferenceDate": "2025-04-01"
  },
  {
    "name": "씨유 남양주한성몰점",
    "lat": 37.6565355738538,
    "lng": 127.281640380486,
    "roadAddress": "경기도 남양주시 화도읍 경춘로 1725, 1층",
    "address": "경기도 남양주시 화도읍 경춘로 1725, 1층",
    "businessStatus": "영업",
    "hasTrashBag": true,
    "hasSpecialBag": false,
    "hasLargeWasteSticker": false,
    "adminVerified": false,
    "dataReferenceDate": "2025-04-01"
  },
  {
    "name": "지에스(GS)25 마석신도점",
    "lat": 37.6798006036867,
    "lng": 127.301542901612,
    "roadAddress": "경기도 남양주시 화도읍 비룡로 323, 신마석신도브래뉴 106호",
    "address": "경기도 남양주시 화도읍 비룡로 323, 신마석신도브래뉴 106호",
    "businessStatus": "영업",
    "hasTrashBag": true,
    "hasSpecialBag": false,
    "hasLargeWasteSticker": false,
    "adminVerified": false,
    "dataReferenceDate": "2025-04-01"
  },
  {
    "name": "세븐일레븐 수동소래비점",
    "lat": 37.6882941016303,
    "lng": 127.341026047773,
    "roadAddress": "경기도 남양주시 수동면 소래비로416번길 100, 우림섬유",
    "address": "경기도 남양주시 수동면 소래비로416번길 100, 우림섬유",
    "businessStatus": "영업",
    "hasTrashBag": true,
    "hasSpecialBag": false,
    "hasLargeWasteSticker": false,
    "adminVerified": false,
    "dataReferenceDate": "2025-04-01"
  },
  {
    "name": "이마트24 북한강로점",
    "lat": 37.6431491427861,
    "lng": 127.360802724406,
    "roadAddress": "경기도 남양주시 화도읍 북한강로 1490",
    "address": "경기도 남양주시 화도읍 북한강로 1490",
    "businessStatus": "영업",
    "hasTrashBag": true,
    "hasSpecialBag": false,
    "hasLargeWasteSticker": false,
    "adminVerified": false,
    "dataReferenceDate": "2025-04-01"
  },
  {
    "name": "세븐일레븐 수동입석점",
    "lat": 37.718848544294,
    "lng": 127.315193108258,
    "roadAddress": "경기도 남양주시 수동면 비룡로 966",
    "address": "경기도 남양주시 수동면 비룡로 966",
    "businessStatus": "영업",
    "hasTrashBag": true,
    "hasSpecialBag": false,
    "hasLargeWasteSticker": false,
    "adminVerified": false,
    "dataReferenceDate": "2025-04-01"
  },
  {
    "name": "세븐일레븐 수동송천리점",
    "lat": 37.6883008373611,
    "lng": 127.322457384266,
    "roadAddress": "경기도 남양주시 수동면 비룡로530번길 5",
    "address": "경기도 남양주시 수동면 비룡로530번길 5",
    "businessStatus": "영업",
    "hasTrashBag": true,
    "hasSpecialBag": false,
    "hasLargeWasteSticker": false,
    "adminVerified": false,
    "dataReferenceDate": "2025-04-01"
  },
  {
    "name": "미니스톱 남양주금남점",
    "lat": 37.6441958376115,
    "lng": 127.36105898933,
    "roadAddress": "경기도 남양주시 화도읍 북한강로 1501, 1층",
    "address": "경기도 남양주시 화도읍 북한강로 1501, 1층",
    "businessStatus": "영업",
    "hasTrashBag": true,
    "hasSpecialBag": false,
    "hasLargeWasteSticker": false,
    "adminVerified": false,
    "dataReferenceDate": "2025-04-01"
  },
  {
    "name": "실크로드OK마트",
    "lat": 37.640261922356,
    "lng": 127.303005497767,
    "roadAddress": "경기도 남양주시 화도읍 수레로 1157-1, 청구아파트 상가동 1층 104호",
    "address": "경기도 남양주시 화도읍 수레로 1157-1, 청구아파트 상가동 1층 104호",
    "businessStatus": "영업",
    "hasTrashBag": true,
    "hasSpecialBag": false,
    "hasLargeWasteSticker": false,
    "adminVerified": false,
    "dataReferenceDate": "2025-04-01"
  },
  {
    "name": "창현편의점(마트)",
    "lat": 37.6451278522817,
    "lng": 127.307289415656,
    "roadAddress": "경기도 남양주시 화도읍 폭포로 65-6",
    "address": "경기도 남양주시 화도읍 폭포로 65-6",
    "businessStatus": "영업",
    "hasTrashBag": true,
    "hasSpecialBag": false,
    "hasLargeWasteSticker": false,
    "adminVerified": false,
    "dataReferenceDate": "2025-04-01"
  },
  {
    "name": "세븐일레븐 화도차산리점",
    "lat": 37.6233991810417,
    "lng": 127.302774941461,
    "roadAddress": "경기도 남양주시 화도읍 재재기로 116, 성수빌딩",
    "address": "경기도 남양주시 화도읍 재재기로 116, 성수빌딩",
    "businessStatus": "영업",
    "hasTrashBag": true,
    "hasSpecialBag": false,
    "hasLargeWasteSticker": false,
    "adminVerified": false,
    "dataReferenceDate": "2025-04-01"
  },
  {
    "name": "세븐일레븐 화도북한강점",
    "lat": 37.653115701429,
    "lng": 127.368346774485,
    "roadAddress": "경기도 남양주시 화도읍 북한강로 1623",
    "address": "경기도 남양주시 화도읍 북한강로 1623",
    "businessStatus": "영업",
    "hasTrashBag": true,
    "hasSpecialBag": false,
    "hasLargeWasteSticker": false,
    "adminVerified": false,
    "dataReferenceDate": "2025-04-01"
  },
  {
    "name": "세븐일레븐 묵현중앙점",
    "lat": 37.6586709039565,
    "lng": 127.292229908734,
    "roadAddress": "경기도 남양주시 화도읍 묵현로양현1길 8, 할인마트 1호",
    "address": "경기도 남양주시 화도읍 묵현로양현1길 8, 할인마트 1호",
    "businessStatus": "영업",
    "hasTrashBag": true,
    "hasSpecialBag": false,
    "hasLargeWasteSticker": false,
    "adminVerified": false,
    "dataReferenceDate": "2025-04-01"
  },
  {
    "name": "(주)이마트",
    "lat": 37.642746594629855,
    "lng": 127.12595961826416,
    "roadAddress": "경기도 남양주시 서울특별시 성동구 뚝섬로 377, 이마트 본사 1층 (성수동2가)",
    "address": "경기도 남양주시 서울특별시 성동구 뚝섬로 377, 이마트 본사 1층 (성수동2가)",
    "businessStatus": "영업",
    "hasTrashBag": true,
    "hasSpecialBag": false,
    "hasLargeWasteSticker": false,
    "adminVerified": false,
    "dataReferenceDate": "2025-04-01"
  },
  {
    "name": "노브랜드 남양주화도2점",
    "lat": 37.65443984415675,
    "lng": 127.27404979002006,
    "roadAddress": "경기도 남양주시 서울특별시 성동구 뚝섬로 377, 이마트 본사 (성수동2가)",
    "address": "경기도 남양주시 서울특별시 성동구 뚝섬로 377, 이마트 본사 (성수동2가)",
    "businessStatus": "영업",
    "hasTrashBag": true,
    "hasSpecialBag": false,
    "hasLargeWasteSticker": false,
    "adminVerified": false,
    "dataReferenceDate": "2025-04-01"
  },
  {
    "name": "세븐일레븐 마석센터점",
    "lat": 37.6524118179833,
    "lng": 127.307568845245,
    "roadAddress": "경기도 남양주시 화도읍 마석중앙로 69",
    "address": "경기도 남양주시 화도읍 마석중앙로 69",
    "businessStatus": "영업",
    "hasTrashBag": true,
    "hasSpecialBag": false,
    "hasLargeWasteSticker": false,
    "adminVerified": false,
    "dataReferenceDate": "2025-04-01"
  },
  {
    "name": "주식회사 케이투오씨씨",
    "lat": 37.6164118509912,
    "lng": 127.305159157152,
    "roadAddress": "경기도 남양주시 화도읍 재재기로 201, 2동",
    "address": "경기도 남양주시 화도읍 재재기로 201, 2동",
    "businessStatus": "영업",
    "hasTrashBag": true,
    "hasSpecialBag": false,
    "hasLargeWasteSticker": false,
    "adminVerified": false,
    "dataReferenceDate": "2025-04-01"
  },
  {
    "name": "라온마트",
    "lat": 37.6523689782229,
    "lng": 127.297252706484,
    "roadAddress": "경기도 남양주시 화도읍 경춘로1876번길 3, 지층 101호",
    "address": "경기도 남양주시 화도읍 경춘로1876번길 3, 지층 101호",
    "businessStatus": "영업",
    "hasTrashBag": true,
    "hasSpecialBag": false,
    "hasLargeWasteSticker": false,
    "adminVerified": false,
    "dataReferenceDate": "2025-04-01"
  },
  {
    "name": "마석식자재마트",
    "lat": 37.6503229893852,
    "lng": 127.303987579553,
    "roadAddress": "경기도 남양주시 화도읍 수레로1260번길 19 (주)마석식자재마트 1층",
    "address": "경기도 남양주시 화도읍 수레로1260번길 19 (주)마석식자재마트 1층",
    "businessStatus": "영업",
    "hasTrashBag": true,
    "hasSpecialBag": false,
    "hasLargeWasteSticker": false,
    "adminVerified": false,
    "dataReferenceDate": "2025-04-01"
  },
  {
    "name": "씨유 마석시인의정원점",
    "lat": 37.6533091357503,
    "lng": 127.309794550166,
    "roadAddress": "경기도 남양주시 화도읍 마석로26번길 29, 시인의정원 제1차 B202호",
    "address": "경기도 남양주시 화도읍 마석로26번길 29, 시인의정원 제1차 B202호",
    "businessStatus": "영업",
    "hasTrashBag": true,
    "hasSpecialBag": false,
    "hasLargeWasteSticker": false,
    "adminVerified": false,
    "dataReferenceDate": "2025-04-01"
  },
  {
    "name": "주식회사 자연안에",
    "lat": 37.6559185733166,
    "lng": 127.274148378292,
    "roadAddress": "경기도 남양주시 화도읍 먹갓로 19",
    "address": "경기도 남양주시 화도읍 먹갓로 19",
    "businessStatus": "영업",
    "hasTrashBag": true,
    "hasSpecialBag": false,
    "hasLargeWasteSticker": false,
    "adminVerified": false,
    "dataReferenceDate": "2025-04-01"
  },
  {
    "name": "이마트24 마석우리점",
    "lat": 37.6582185284282,
    "lng": 127.301041375393,
    "roadAddress": "경기도 남양주시 화도읍 맷돌로91번길 4-10, 로망스 빌 1층 101호",
    "address": "경기도 남양주시 화도읍 맷돌로91번길 4-10, 로망스 빌 1층 101호",
    "businessStatus": "영업",
    "hasTrashBag": true,
    "hasSpecialBag": false,
    "hasLargeWasteSticker": false,
    "adminVerified": false,
    "dataReferenceDate": "2025-04-01"
  },
  {
    "name": "씨유 마석라온중앙점",
    "lat": 37.6524017107561,
    "lng": 127.295232795577,
    "roadAddress": "경기도 남양주시 화도읍 경춘보학2길 10, 상가동 1층 105호 (남양주 라온 프라이빗 2단지)",
    "address": "경기도 남양주시 화도읍 경춘보학2길 10, 상가동 1층 105호 (남양주 라온 프라이빗 2단지)",
    "businessStatus": "영업",
    "hasTrashBag": true,
    "hasSpecialBag": false,
    "hasLargeWasteSticker": false,
    "adminVerified": false,
    "dataReferenceDate": "2025-04-01"
  },
  {
    "name": "씨유 마석라온1단지점",
    "lat": 37.651775998592,
    "lng": 127.292112912641,
    "roadAddress": "경기도 남양주시 화도읍 경춘보학2길 30, 상가동 102호 (남양주 라온프라이빗 1단지)",
    "address": "경기도 남양주시 화도읍 경춘보학2길 30, 상가동 102호 (남양주 라온프라이빗 1단지)",
    "businessStatus": "영업",
    "hasTrashBag": true,
    "hasSpecialBag": false,
    "hasLargeWasteSticker": false,
    "adminVerified": false,
    "dataReferenceDate": "2025-04-01"
  },
  {
    "name": "지에스(GS)25 마석으뜸점",
    "lat": 37.6661444157536,
    "lng": 127.302632500762,
    "roadAddress": "경기도 남양주시 화도읍 비룡로158번길 9, 1층",
    "address": "경기도 남양주시 화도읍 비룡로158번길 9, 1층",
    "businessStatus": "영업",
    "hasTrashBag": true,
    "hasSpecialBag": false,
    "hasLargeWasteSticker": false,
    "adminVerified": false,
    "dataReferenceDate": "2025-04-01"
  },
  {
    "name": "(주)꼬끼오",
    "lat": 37.7042815668291,
    "lng": 127.325767541588,
    "roadAddress": "경기도 남양주시 수동면 비룡로 735",
    "address": "경기도 남양주시 수동면 비룡로 735",
    "businessStatus": "영업",
    "hasTrashBag": true,
    "hasSpecialBag": false,
    "hasLargeWasteSticker": false,
    "adminVerified": false,
    "dataReferenceDate": "2025-04-01"
  },
  {
    "name": "롯데쇼핑(주)롯데마트 마석점",
    "lat": 37.6501390859317,
    "lng": 127.309296047054,
    "roadAddress": "경기도 남양주시 화도읍 경춘로 1992",
    "address": "경기도 남양주시 화도읍 경춘로 1992",
    "businessStatus": "영업",
    "hasTrashBag": true,
    "hasSpecialBag": false,
    "hasLargeWasteSticker": false,
    "adminVerified": false,
    "dataReferenceDate": "2025-04-01"
  },
  {
    "name": "롯데쇼핑(주)롯데슈퍼남양주마석점",
    "lat": 37.6583894900011,
    "lng": 127.305752586784,
    "roadAddress": "경기도 남양주시 화도읍 마석로 84",
    "address": "경기도 남양주시 화도읍 마석로 84",
    "businessStatus": "영업",
    "hasTrashBag": true,
    "hasSpecialBag": false,
    "hasLargeWasteSticker": false,
    "adminVerified": false,
    "dataReferenceDate": "2025-04-01"
  },
  {
    "name": "씨유 남양주금남중앙점",
    "lat": 37.637733069898,
    "lng": 127.355553518059,
    "roadAddress": "경기도 남양주시 화도읍 북한강로 1416, 1층",
    "address": "경기도 남양주시 화도읍 북한강로 1416, 1층",
    "businessStatus": "영업",
    "hasTrashBag": true,
    "hasSpecialBag": false,
    "hasLargeWasteSticker": false,
    "adminVerified": false,
    "dataReferenceDate": "2025-04-01"
  },
  {
    "name": "세븐일레븐 화도경성점",
    "lat": 37.6537794550073,
    "lng": 127.27115198332,
    "roadAddress": "경기도 남양주시 화도읍 경춘로 1619, 경성큰마을아파트 상가동 105호",
    "address": "경기도 남양주시 화도읍 경춘로 1619, 경성큰마을아파트 상가동 105호",
    "businessStatus": "영업",
    "hasTrashBag": true,
    "hasSpecialBag": false,
    "hasLargeWasteSticker": false,
    "adminVerified": false,
    "dataReferenceDate": "2025-04-01"
  },
  {
    "name": "이마트24 남양주트레지움",
    "lat": 37.6678752158365,
    "lng": 127.302799229472,
    "roadAddress": "경기도 남양주시 화도읍 비룡로 180, 남양주두산위브트레지움 상가동 101, 102호",
    "address": "경기도 남양주시 화도읍 비룡로 180, 남양주두산위브트레지움 상가동 101, 102호",
    "businessStatus": "영업",
    "hasTrashBag": true,
    "hasSpecialBag": false,
    "hasLargeWasteSticker": false,
    "adminVerified": false,
    "dataReferenceDate": "2025-04-01"
  },
  {
    "name": "다드림마트 묵현점",
    "lat": 37.656919514154,
    "lng": 127.274013686463,
    "roadAddress": "경기도 남양주시 화도읍 먹갓로27번길 6, 1, 2층",
    "address": "경기도 남양주시 화도읍 먹갓로27번길 6, 1, 2층",
    "businessStatus": "영업",
    "hasTrashBag": true,
    "hasSpecialBag": false,
    "hasLargeWasteSticker": false,
    "adminVerified": false,
    "dataReferenceDate": "2025-04-01"
  },
  {
    "name": "이마트24 self 마석역 센트럴점",
    "lat": 37.6518996189227,
    "lng": 127.312978288595,
    "roadAddress": "경기도 남양주시 화도읍 마석중앙로 120, 1층 101호",
    "address": "경기도 남양주시 화도읍 마석중앙로 120, 1층 101호",
    "businessStatus": "영업",
    "hasTrashBag": true,
    "hasSpecialBag": false,
    "hasLargeWasteSticker": false,
    "adminVerified": false,
    "dataReferenceDate": "2025-04-01"
  },
  {
    "name": "세븐일레븐 화도팜파스점",
    "lat": 37.6523689782229,
    "lng": 127.297252706484,
    "roadAddress": "경기도 남양주시 화도읍 경춘로1876번길 3, 108호",
    "address": "경기도 남양주시 화도읍 경춘로1876번길 3, 108호",
    "businessStatus": "영업",
    "hasTrashBag": true,
    "hasSpecialBag": false,
    "hasLargeWasteSticker": false,
    "adminVerified": false,
    "dataReferenceDate": "2025-04-01"
  },
  {
    "name": "미니스톱 마석우리점",
    "lat": 37.6529001694975,
    "lng": 127.305515222353,
    "roadAddress": "경기도 남양주시 화도읍 마석중앙로 51, 1층",
    "address": "경기도 남양주시 화도읍 마석중앙로 51, 1층",
    "businessStatus": "영업",
    "hasTrashBag": true,
    "hasSpecialBag": false,
    "hasLargeWasteSticker": false,
    "adminVerified": false,
    "dataReferenceDate": "2025-04-01"
  },
  {
    "name": "지에스(GS)25 차산늘찬빌점",
    "lat": 37.635979259669,
    "lng": 127.307887886966,
    "roadAddress": "경기도 남양주시 화도읍 수레로1120번길 42-4, 1층 101호 (늘찬빌)",
    "address": "경기도 남양주시 화도읍 수레로1120번길 42-4, 1층 101호 (늘찬빌)",
    "businessStatus": "영업",
    "hasTrashBag": true,
    "hasSpecialBag": false,
    "hasLargeWasteSticker": false,
    "adminVerified": false,
    "dataReferenceDate": "2025-04-01"
  },
  {
    "name": "씨유(CU)화도현대점",
    "lat": 37.6394101250484,
    "lng": 127.304234517795,
    "roadAddress": "경기도 남양주시 화도읍 수레로 1142-5, 현대아파트1차 상가동",
    "address": "경기도 남양주시 화도읍 수레로 1142-5, 현대아파트1차 상가동",
    "businessStatus": "영업",
    "hasTrashBag": true,
    "hasSpecialBag": false,
    "hasLargeWasteSticker": false,
    "adminVerified": false,
    "dataReferenceDate": "2025-04-01"
  },
  {
    "name": "CU 화도마석궁전점",
    "lat": 37.6513628445702,
    "lng": 127.306585448485,
    "roadAddress": "경기도 남양주시 화도읍 마석로 6",
    "address": "경기도 남양주시 화도읍 마석로 6",
    "businessStatus": "영업",
    "hasTrashBag": true,
    "hasSpecialBag": false,
    "hasLargeWasteSticker": false,
    "adminVerified": false,
    "dataReferenceDate": "2025-04-01"
  },
  {
    "name": "CU 화도오월점",
    "lat": 37.6520449710555,
    "lng": 127.298400587022,
    "roadAddress": "경기도 남양주시 화도읍 경춘로 1896-8, 가동 101호",
    "address": "경기도 남양주시 화도읍 경춘로 1896-8, 가동 101호",
    "businessStatus": "영업",
    "hasTrashBag": true,
    "hasSpecialBag": false,
    "hasLargeWasteSticker": false,
    "adminVerified": false,
    "dataReferenceDate": "2025-04-01"
  },
  {
    "name": "이마트24창현신명점",
    "lat": 37.6474035396611,
    "lng": 127.304093978531,
    "roadAddress": "경기도 남양주시 화도읍 수레로 1234-26, 신명아파트 상가동 102,103,104호",
    "address": "경기도 남양주시 화도읍 수레로 1234-26, 신명아파트 상가동 102,103,104호",
    "businessStatus": "영업",
    "hasTrashBag": true,
    "hasSpecialBag": false,
    "hasLargeWasteSticker": false,
    "adminVerified": false,
    "dataReferenceDate": "2025-04-01"
  },
  {
    "name": "이마트24 차산풍림점",
    "lat": 37.6366704189145,
    "lng": 127.304863129266,
    "roadAddress": "경기도 남양주시 화도읍 수레로1120번길 10, 신창현 풍림아이원 1차 상가동 103호",
    "address": "경기도 남양주시 화도읍 수레로1120번길 10, 신창현 풍림아이원 1차 상가동 103호",
    "businessStatus": "영업",
    "hasTrashBag": true,
    "hasSpecialBag": false,
    "hasLargeWasteSticker": false,
    "adminVerified": false,
    "dataReferenceDate": "2025-04-01"
  },
  {
    "name": "이마트24 마석라온점",
    "lat": 37.6501562935199,
    "lng": 127.296452371034,
    "roadAddress": "경기도 남양주시 화도읍 경춘보학1길 8, 상가동 101호 (남양주 라온프라이빗 5단지)",
    "address": "경기도 남양주시 화도읍 경춘보학1길 8, 상가동 101호 (남양주 라온프라이빗 5단지)",
    "businessStatus": "영업",
    "hasTrashBag": true,
    "hasSpecialBag": false,
    "hasLargeWasteSticker": false,
    "adminVerified": false,
    "dataReferenceDate": "2025-04-01"
  },
  {
    "name": "화도두꺼비왕식자재마트 주식회사",
    "lat": 37.6562019960422,
    "lng": 127.339520666499,
    "roadAddress": "경기도 남양주시 화도읍 경춘로 2256, 화도휴게소",
    "address": "경기도 남양주시 화도읍 경춘로 2256, 화도휴게소",
    "businessStatus": "영업",
    "hasTrashBag": true,
    "hasSpecialBag": false,
    "hasLargeWasteSticker": false,
    "adminVerified": false,
    "dataReferenceDate": "2025-04-01"
  },
  {
    "name": "지에스(GS25) 화도먹갓로점",
    "lat": 37.6588507464689,
    "lng": 127.274253563607,
    "roadAddress": "경기도 남양주시 화도읍 먹갓로 54",
    "address": "경기도 남양주시 화도읍 먹갓로 54",
    "businessStatus": "영업",
    "hasTrashBag": true,
    "hasSpecialBag": false,
    "hasLargeWasteSticker": false,
    "adminVerified": false,
    "dataReferenceDate": "2025-04-01"
  },
  {
    "name": "GS25 마석역점",
    "lat": 37.6521249003723,
    "lng": 127.310851774079,
    "roadAddress": "경기도 남양주시 화도읍 마석중앙로 99-2",
    "address": "경기도 남양주시 화도읍 마석중앙로 99-2",
    "businessStatus": "영업",
    "hasTrashBag": true,
    "hasSpecialBag": false,
    "hasLargeWasteSticker": false,
    "adminVerified": false,
    "dataReferenceDate": "2025-04-01"
  },
  {
    "name": "지에스(GS)25 화도영진점",
    "lat": 37.6563337004617,
    "lng": 127.287230327216,
    "roadAddress": "경기도 남양주시 화도읍 경춘로 1790-1, 101동 102호 (영진그린필아파트)",
    "address": "경기도 남양주시 화도읍 경춘로 1790-1, 101동 102호 (영진그린필아파트)",
    "businessStatus": "영업",
    "hasTrashBag": true,
    "hasSpecialBag": false,
    "hasLargeWasteSticker": false,
    "adminVerified": false,
    "dataReferenceDate": "2025-04-01"
  },
  {
    "name": "세븐일레븐 송천로드점",
    "lat": 37.6863827178881,
    "lng": 127.32834802824,
    "roadAddress": "경기도 남양주시 수동면 소래비로 450",
    "address": "경기도 남양주시 수동면 소래비로 450",
    "businessStatus": "영업",
    "hasTrashBag": true,
    "hasSpecialBag": false,
    "hasLargeWasteSticker": false,
    "adminVerified": false,
    "dataReferenceDate": "2025-04-01"
  },
  {
    "name": "하나마켓(마석점)",
    "lat": 37.6583894900011,
    "lng": 127.305752586784,
    "roadAddress": "경기도 남양주시 화도읍 마석로 84, 1층",
    "address": "경기도 남양주시 화도읍 마석로 84, 1층",
    "businessStatus": "영업",
    "hasTrashBag": true,
    "hasSpecialBag": false,
    "hasLargeWasteSticker": false,
    "adminVerified": false,
    "dataReferenceDate": "2025-04-01"
  },
  {
    "name": "(주)코리아세븐 수동운수리점",
    "lat": 37.7029168754015,
    "lng": 127.32664334191,
    "roadAddress": "경기도 남양주시 수동면 비룡로 719, 1층",
    "address": "경기도 남양주시 수동면 비룡로 719, 1층",
    "businessStatus": "영업",
    "hasTrashBag": true,
    "hasSpecialBag": false,
    "hasLargeWasteSticker": false,
    "adminVerified": false,
    "dataReferenceDate": "2025-04-01"
  },
  {
    "name": "프라임21",
    "lat": 37.6547601008413,
    "lng": 127.306298995464,
    "roadAddress": "경기도 남양주시 화도읍 마석로 42",
    "address": "경기도 남양주시 화도읍 마석로 42",
    "businessStatus": "영업",
    "hasTrashBag": true,
    "hasSpecialBag": false,
    "hasLargeWasteSticker": false,
    "adminVerified": false,
    "dataReferenceDate": "2025-04-01"
  },
  {
    "name": "씨유 가곡행복점",
    "lat": 37.6809011236215,
    "lng": 127.303202913435,
    "roadAddress": "경기도 남양주시 화도읍 비룡로 333",
    "address": "경기도 남양주시 화도읍 비룡로 333",
    "businessStatus": "영업",
    "hasTrashBag": true,
    "hasSpecialBag": false,
    "hasLargeWasteSticker": false,
    "adminVerified": false,
    "dataReferenceDate": "2025-04-01"
  },
  {
    "name": "GS25 묵현삼신점",
    "lat": 37.6672556564729,
    "lng": 127.299890723665,
    "roadAddress": "경기도 남양주시 화도읍 비룡로 185-25, 상가동 105호 (삼신푸른솔아파트)",
    "address": "경기도 남양주시 화도읍 비룡로 185-25, 상가동 105호 (삼신푸른솔아파트)",
    "businessStatus": "영업",
    "hasTrashBag": true,
    "hasSpecialBag": false,
    "hasLargeWasteSticker": false,
    "adminVerified": false,
    "dataReferenceDate": "2025-04-01"
  },
  {
    "name": "지에스(GS)25 남양주화도점",
    "lat": 37.683784021254,
    "lng": 127.307395646823,
    "roadAddress": "경기도 남양주시 화도읍 비룡로 382",
    "address": "경기도 남양주시 화도읍 비룡로 382",
    "businessStatus": "영업",
    "hasTrashBag": true,
    "hasSpecialBag": false,
    "hasLargeWasteSticker": false,
    "adminVerified": false,
    "dataReferenceDate": "2025-04-01"
  },
  {
    "name": "롯데쇼핑(주) 롯데마트 마석점",
    "lat": 37.6501390859317,
    "lng": 127.309296047054,
    "roadAddress": "경기도 남양주시 화도읍 경춘로 1992",
    "address": "경기도 남양주시 화도읍 경춘로 1992",
    "businessStatus": "영업",
    "hasTrashBag": true,
    "hasSpecialBag": false,
    "hasLargeWasteSticker": false,
    "adminVerified": false,
    "dataReferenceDate": "2025-04-01"
  },
  {
    "name": "지에스(GS)25 화도진벌점",
    "lat": 37.6628604948148,
    "lng": 127.364721033374,
    "roadAddress": "경기도 남양주시 화도읍 경춘로 2511",
    "address": "경기도 남양주시 화도읍 경춘로 2511",
    "businessStatus": "영업",
    "hasTrashBag": true,
    "hasSpecialBag": false,
    "hasLargeWasteSticker": false,
    "adminVerified": false,
    "dataReferenceDate": "2025-04-01"
  },
  {
    "name": "제일우드",
    "lat": 37.7197210450762,
    "lng": 127.31319762228,
    "roadAddress": "경기도 남양주시 수동면 비룡로 983",
    "address": "경기도 남양주시 수동면 비룡로 983",
    "businessStatus": "영업",
    "hasTrashBag": true,
    "hasSpecialBag": false,
    "hasLargeWasteSticker": false,
    "adminVerified": false,
    "dataReferenceDate": "2025-04-01"
  },
  {
    "name": "씨유 남양주가곡로점",
    "lat": 37.6869060633564,
    "lng": 127.302347814495,
    "roadAddress": "경기도 남양주시 화도읍 가곡로 70, 우진빌딩 1층",
    "address": "경기도 남양주시 화도읍 가곡로 70, 우진빌딩 1층",
    "businessStatus": "영업",
    "hasTrashBag": true,
    "hasSpecialBag": false,
    "hasLargeWasteSticker": false,
    "adminVerified": false,
    "dataReferenceDate": "2025-04-01"
  },
  {
    "name": "(주)코리아세븐 마석별나라점",
    "lat": 37.6570220024488,
    "lng": 127.303337648063,
    "roadAddress": "경기도 남양주시 화도읍 마석중앙로37번길 47, 별나라타워 1층 106호",
    "address": "경기도 남양주시 화도읍 마석중앙로37번길 47, 별나라타워 1층 106호",
    "businessStatus": "영업",
    "hasTrashBag": true,
    "hasSpecialBag": false,
    "hasLargeWasteSticker": false,
    "adminVerified": false,
    "dataReferenceDate": "2025-04-01"
  },
  {
    "name": "씨유월산로드점",
    "lat": 37.6559069856304,
    "lng": 127.336796799599,
    "roadAddress": "경기도 남양주시 화도읍 경춘로 2244",
    "address": "경기도 남양주시 화도읍 경춘로 2244",
    "businessStatus": "영업",
    "hasTrashBag": true,
    "hasSpecialBag": false,
    "hasLargeWasteSticker": false,
    "adminVerified": false,
    "dataReferenceDate": "2025-04-01"
  },
  {
    "name": "씨유가곡중앙2호점",
    "lat": 37.6816397096796,
    "lng": 127.303461102838,
    "roadAddress": "경기도 남양주시 화도읍 가곡로 8, 103호",
    "address": "경기도 남양주시 화도읍 가곡로 8, 103호",
    "businessStatus": "영업",
    "hasTrashBag": true,
    "hasSpecialBag": false,
    "hasLargeWasteSticker": false,
    "adminVerified": false,
    "dataReferenceDate": "2025-04-01"
  },
  {
    "name": "씨유 마석중흥점",
    "lat": 37.6572973085745,
    "lng": 127.303280404522,
    "roadAddress": "경기도 남양주시 화도읍 맷돌로 118, 중흥프라자 1층 106호",
    "address": "경기도 남양주시 화도읍 맷돌로 118, 중흥프라자 1층 106호",
    "businessStatus": "영업",
    "hasTrashBag": true,
    "hasSpecialBag": false,
    "hasLargeWasteSticker": false,
    "adminVerified": false,
    "dataReferenceDate": "2025-04-01"
  },
  {
    "name": "씨유 마석신명점",
    "lat": 37.6555122488724,
    "lng": 127.303296035443,
    "roadAddress": "경기도 남양주시 화도읍 비룡로 56-8, 상가동 101호 (신명스카이뷰그린아파트)",
    "address": "경기도 남양주시 화도읍 비룡로 56-8, 상가동 101호 (신명스카이뷰그린아파트)",
    "businessStatus": "영업",
    "hasTrashBag": true,
    "hasSpecialBag": false,
    "hasLargeWasteSticker": false,
    "adminVerified": false,
    "dataReferenceDate": "2025-04-01"
  },
  {
    "name": "올앤굿즈",
    "lat": 37.6501562935199,
    "lng": 127.296452371034,
    "roadAddress": "경기도 남양주시 화도읍 경춘보학1길 8, 상가동 102호 (남양주 라온프라이빗 5단지)",
    "address": "경기도 남양주시 화도읍 경춘보학1길 8, 상가동 102호 (남양주 라온프라이빗 5단지)",
    "businessStatus": "영업",
    "hasTrashBag": true,
    "hasSpecialBag": false,
    "hasLargeWasteSticker": false,
    "adminVerified": false,
    "dataReferenceDate": "2025-04-01"
  },
  {
    "name": "이마트24 화도중앙점",
    "lat": 37.641851340871,
    "lng": 127.303006514775,
    "roadAddress": "경기도 남양주시 화도읍 수레로 1171-5",
    "address": "경기도 남양주시 화도읍 수레로 1171-5",
    "businessStatus": "영업",
    "hasTrashBag": true,
    "hasSpecialBag": false,
    "hasLargeWasteSticker": false,
    "adminVerified": false,
    "dataReferenceDate": "2025-04-01"
  },
  {
    "name": "세븐일레븐 가곡점",
    "lat": 37.6842357808415,
    "lng": 127.302091646153,
    "roadAddress": "경기도 남양주시 화도읍 가곡로 39",
    "address": "경기도 남양주시 화도읍 가곡로 39",
    "businessStatus": "영업",
    "hasTrashBag": true,
    "hasSpecialBag": false,
    "hasLargeWasteSticker": false,
    "adminVerified": false,
    "dataReferenceDate": "2025-04-01"
  },
  {
    "name": "지에스(GS25) 마석타운점",
    "lat": 37.6615787437083,
    "lng": 127.300469688036,
    "roadAddress": "경기도 남양주시 화도읍 비룡로99번길 28",
    "address": "경기도 남양주시 화도읍 비룡로99번길 28",
    "businessStatus": "영업",
    "hasTrashBag": true,
    "hasSpecialBag": false,
    "hasLargeWasteSticker": false,
    "adminVerified": false,
    "dataReferenceDate": "2025-04-01"
  },
  {
    "name": "지에스(GS25) 창현주공점",
    "lat": 37.6447921789509,
    "lng": 127.301621141619,
    "roadAddress": "경기도 남양주시 화도읍 녹촌로 11, 주공아파트 상가동",
    "address": "경기도 남양주시 화도읍 녹촌로 11, 주공아파트 상가동",
    "businessStatus": "영업",
    "hasTrashBag": true,
    "hasSpecialBag": false,
    "hasLargeWasteSticker": false,
    "adminVerified": false,
    "dataReferenceDate": "2025-04-01"
  },
  {
    "name": "CU 화도신한점",
    "lat": 37.6464658404758,
    "lng": 127.299783094409,
    "roadAddress": "경기도 남양주시 화도읍 녹촌로 20, 상가동 105, 106호 (신한토탈아파트)",
    "address": "경기도 남양주시 화도읍 녹촌로 20, 상가동 105, 106호 (신한토탈아파트)",
    "businessStatus": "영업",
    "hasTrashBag": true,
    "hasSpecialBag": false,
    "hasLargeWasteSticker": false,
    "adminVerified": false,
    "dataReferenceDate": "2025-04-01"
  },
  {
    "name": "GS25 마석푸르지오",
    "lat": 37.6554696001928,
    "lng": 127.298255637153,
    "roadAddress": "경기도 남양주시 화도읍 비룡로33번길 19, 마석 힐즈파크 푸르지오 상가 상가동 106호",
    "address": "경기도 남양주시 화도읍 비룡로33번길 19, 마석 힐즈파크 푸르지오 상가 상가동 106호",
    "businessStatus": "영업",
    "hasTrashBag": true,
    "hasSpecialBag": false,
    "hasLargeWasteSticker": false,
    "adminVerified": false,
    "dataReferenceDate": "2025-04-01"
  },
  {
    "name": "이마트24 화도우방점",
    "lat": 37.6470913034557,
    "lng": 127.298111085446,
    "roadAddress": "경기도 남양주시 화도읍 수레로1233번길 34, 상가동 107호 (화도센트럴우방아이유쉘)",
    "address": "경기도 남양주시 화도읍 수레로1233번길 34, 상가동 107호 (화도센트럴우방아이유쉘)",
    "businessStatus": "영업",
    "hasTrashBag": true,
    "hasSpecialBag": false,
    "hasLargeWasteSticker": false,
    "adminVerified": false,
    "dataReferenceDate": "2025-04-01"
  },
  {
    "name": "씨유 마석역점",
    "lat": 37.6518760764555,
    "lng": 127.311763522302,
    "roadAddress": "경기도 남양주시 화도읍 마석중앙로 108, 우보빌딩 106호",
    "address": "경기도 남양주시 화도읍 마석중앙로 108, 우보빌딩 106호",
    "businessStatus": "영업",
    "hasTrashBag": true,
    "hasSpecialBag": false,
    "hasLargeWasteSticker": false,
    "adminVerified": false,
    "dataReferenceDate": "2025-04-01"
  },
  {
    "name": "지에스(GS)25마석본점",
    "lat": 37.6506112896141,
    "lng": 127.320302916337,
    "roadAddress": "경기도 남양주시 화도읍 경춘로 2102-26, 마석 그랜드힐아파트 상가동 1층 105호",
    "address": "경기도 남양주시 화도읍 경춘로 2102-26, 마석 그랜드힐아파트 상가동 1층 105호",
    "businessStatus": "영업",
    "hasTrashBag": true,
    "hasSpecialBag": false,
    "hasLargeWasteSticker": false,
    "adminVerified": false,
    "dataReferenceDate": "2025-04-01"
  },
  {
    "name": "슬기로운 정육점",
    "lat": 37.6633139395987,
    "lng": 127.30184510732,
    "roadAddress": "경기도 남양주시 화도읍 비룡로 129",
    "address": "경기도 남양주시 화도읍 비룡로 129",
    "businessStatus": "영업",
    "hasTrashBag": true,
    "hasSpecialBag": false,
    "hasLargeWasteSticker": false,
    "adminVerified": false,
    "dataReferenceDate": "2025-04-01"
  },
  {
    "name": "세븐일레븐 남양주금남로점",
    "lat": 37.6410321487893,
    "lng": 127.359402830694,
    "roadAddress": "경기도 남양주시 화도읍 북한강로 1464, 24시편의점 1층",
    "address": "경기도 남양주시 화도읍 북한강로 1464, 24시편의점 1층",
    "businessStatus": "영업",
    "hasTrashBag": true,
    "hasSpecialBag": false,
    "hasLargeWasteSticker": false,
    "adminVerified": false,
    "dataReferenceDate": "2025-04-01"
  },
  {
    "name": "씨유 차산물류센터점",
    "lat": 37.6156402650554,
    "lng": 127.306022134551,
    "roadAddress": "경기도 남양주시 화도읍 재재기로149번길 63, 1층",
    "address": "경기도 남양주시 화도읍 재재기로149번길 63, 1층",
    "businessStatus": "영업",
    "hasTrashBag": true,
    "hasSpecialBag": false,
    "hasLargeWasteSticker": false,
    "adminVerified": false,
    "dataReferenceDate": "2025-04-01"
  },
  {
    "name": "지에스(GS25) 마석그랜드힐점",
    "lat": 37.6512246600684,
    "lng": 127.321104329981,
    "roadAddress": "경기도 남양주시 화도읍 경춘로 2102-10, 덕양프라자 107, 108호",
    "address": "경기도 남양주시 화도읍 경춘로 2102-10, 덕양프라자 107, 108호",
    "businessStatus": "영업",
    "hasTrashBag": true,
    "hasSpecialBag": false,
    "hasLargeWasteSticker": false,
    "adminVerified": false,
    "dataReferenceDate": "2025-04-01"
  },
  {
    "name": "화도농협 하나로마트 녹촌점",
    "lat": 37.6511612806393,
    "lng": 127.290242909577,
    "roadAddress": "경기도 남양주시 화도읍 가구단지중앙길 108-11",
    "address": "경기도 남양주시 화도읍 가구단지중앙길 108-11",
    "businessStatus": "영업",
    "hasTrashBag": true,
    "hasSpecialBag": false,
    "hasLargeWasteSticker": false,
    "adminVerified": false,
    "dataReferenceDate": "2025-04-01"
  },