[
  {
    "name": "지에스25 헤이리힐스점",
    "lat": 37.7733392467548,
    "lng": 126.72059004948531,
    "roadAddress": "경기도 파주시 탄현면 평화로 580(탄현면)",
    "address": "경기도 파주시 탄현면 갈현리 284-20",
    "businessStatus": "영업",
    "hasTrashBag": true,
    "hasSpecialBag": true,
    "hasLargeWasteSticker": true,
    "adminVerified": false,
    "dataReferenceDate": "2026-03-27"
  },
  {
    "name": "씨유 파주장릉점",
    "lat": 37.77472176184284,
    "lng": 126.71605469573741,
    "roadAddress": "경기도 파주시 탄현면 장릉로 2(탄현면, 만도카센터)",
    "address": "경기도 파주시 탄현면 갈현리 838-14 만도카센터",
    "businessStatus": "영업",
    "hasTrashBag": true,
    "hasSpecialBag": false,
    "hasLargeWasteSticker": true,
    "adminVerified": false,
    "dataReferenceDate": "2026-03-27"
  },
  {
    "name": "씨유 운정신성점",
    "lat": 37.73845901329284,
    "lng": 126.7307518866372,
    "roadAddress": "경기도 파주시 해올로 50-47(다율동)",
    "address": "경기도 파주시 다율동 1037-7",
    "businessStatus": "영업",
    "hasTrashBag": true,
    "hasSpecialBag": true,
    "hasLargeWasteSticker": true,
    "adminVerified": false,
    "dataReferenceDate": "2026-03-27"
  },
  {
    "name": "씨유 파주교하읍점",
    "lat": 37.75254959102069,
    "lng": 126.74831054972248,
    "roadAddress": "경기도 파주시 교하로 1417(교하동, 새하늘교회)",
    "address": "경기도 파주시 교하동 354-18 새하늘교회",
    "businessStatus": "영업",
    "hasTrashBag": true,
    "hasSpecialBag": false,
    "hasLargeWasteSticker": false,
    "adminVerified": false,
    "dataReferenceDate": "2026-03-27"
  },
  {
    "name": "지에스25 운정파크점",
    "lat": 37.73603495939006,
    "lng": 126.72876210296081,
    "roadAddress": "경기도 파주시 해올로 33(다율동, 운정신도시 파크 푸르지오)",
    "address": "경기도 파주시 다율동 1036 운정신도시 파크 푸르지오",
    "businessStatus": "영업",
    "hasTrashBag": true,
    "hasSpecialBag": true,
    "hasLargeWasteSticker": true,
    "adminVerified": false,
    "dataReferenceDate": "2026-03-27"
  },
  {
    "name": "신교하농협 하나로마트",
    "lat": 37.74399640982545,
    "lng": 126.72840999554063,
    "roadAddress": "경기도 파주시 교하로 1190(다율동)",
    "address": "경기도 파주시 다율동 1014",
    "businessStatus": "영업",
    "hasTrashBag": true,
    "hasSpecialBag": false,
    "hasLargeWasteSticker": true,
    "adminVerified": false,
    "dataReferenceDate": "2026-03-27"
  },
  {
    "name": "세븐일레븐 법원점",
    "lat": 37.8497206012966,
    "lng": 126.87367741326632,
    "roadAddress": "경기도 파주시 법원읍 술이홀로 882(법원읍, 대명마트)",
    "address": "경기도 파주시 법원읍 대능리 86-15 대명마트",
    "businessStatus": "영업",
    "hasTrashBag": true,
    "hasSpecialBag": false,
    "hasLargeWasteSticker": false,
    "adminVerified": false,
    "dataReferenceDate": "2026-03-27"
  },
  {
    "name": "천현농협조합 하나로마트",
    "lat": 37.847948062424486,
    "lng": 126.87641796406854,
    "roadAddress": "경기도 파주시 법원읍 법원로 15(법원읍)",
    "address": "경기도 파주시 법원읍 법원리 434-2",
    "businessStatus": "영업",
    "hasTrashBag": true,
    "hasSpecialBag": true,
    "hasLargeWasteSticker": true,
    "adminVerified": false,
    "dataReferenceDate": "2026-03-27"
  },
  {
    "name": "금오전기철물(새마을금고옆)",
    "lat": 37.84962412141154,
    "lng": 126.87199171295075,
    "roadAddress": "경기도 파주시 법원읍 사임당로 821(법원읍)",
    "address": "경기도 파주시 법원읍 대능리 94-172",
    "businessStatus": "영업",
    "hasTrashBag": true,
    "hasSpecialBag": true,
    "hasLargeWasteSticker": false,
    "adminVerified": false,
    "dataReferenceDate": "2026-03-27"
  },
  {
    "name": "지에스25 법원산업단지점",
    "lat": 37.837710892267964,
    "lng": 126.85638048370284,
    "roadAddress": "경기도 파주시 법원읍 술이홀로 670(법원읍)",
    "address": "경기도 파주시 법원읍 대능리 445-16",
    "businessStatus": "영업",
    "hasTrashBag": true,
    "hasSpecialBag": false,
    "hasLargeWasteSticker": false,
    "adminVerified": false,
    "dataReferenceDate": "2026-03-27"
  },
  {
    "name": "파주유통",
    "lat": 37.85070492088623,
    "lng": 126.87471092835581,
    "roadAddress": "경기도 파주시 법원읍 술이홀로 896(법원읍)",
    "address": "경기도 파주시 법원읍 대능리 89-3",
    "businessStatus": "영업",
    "hasTrashBag": true,
    "hasSpecialBag": true,
    "hasLargeWasteSticker": true,
    "adminVerified": false,
    "dataReferenceDate": "2026-03-27"
  },
  {
    "name": "지에스25 파주유승점",
    "lat": 37.77470583048182,
    "lng": 126.69976456960921,
    "roadAddress": "경기도 파주시 탄현면 하늘소로 120(탄현면, 유승앙브와즈아파트)",
    "address": "경기도 파주시 탄현면 법흥리 1789 유승앙브와즈아파트",
    "businessStatus": "영업",
    "hasTrashBag": true,
    "hasSpecialBag": false,
    "hasLargeWasteSticker": true,
    "adminVerified": false,
    "dataReferenceDate": "2026-03-27"
  },
  {
    "name": "지에스25 파주법흥본점",
    "lat": 37.76961203001674,
    "lng": 126.7043225126218,
    "roadAddress": "경기도 파주시 탄현면 약산로 58(탄현면)",
    "address": "경기도 파주시 탄현면 법흥리 1585",
    "businessStatus": "영업",
    "hasTrashBag": true,
    "hasSpecialBag": false,
    "hasLargeWasteSticker": true,
    "adminVerified": false,
    "dataReferenceDate": "2026-03-27"
  },
  {
    "name": "케이엔키즈앤맘 적성지점",
    "lat": 37.95275547507839,
    "lng": 126.91763627340431,
    "roadAddress": "경기도 파주시 적성면 청송로 1002(적성면)",
    "address": "경기도 파주시 적성면 마지리 53-1",
    "businessStatus": "영업",
    "hasTrashBag": true,
    "hasSpecialBag": false,
    "hasLargeWasteSticker": true,
    "adminVerified": false,
    "dataReferenceDate": "2026-03-27"
  },
  {
    "name": "GS25 적성사랑점",
    "lat": 37.95577166970514,
    "lng": 126.91764854997292,
    "roadAddress": "경기도 파주시 적성면 솥뒤로 18(적성면)",
    "address": "경기도 파주시 적성면 마지리 45-10",
    "businessStatus": "영업",
    "hasTrashBag": true,
    "hasSpecialBag": false,
    "hasLargeWasteSticker": false,
    "adminVerified": false,
    "dataReferenceDate": "2026-03-27"
  },
  {
    "name": "지에스25 파주신세계점",
    "lat": 37.76904647907094,
    "lng": 126.69964010359253,
    "roadAddress": "경기도 파주시 탄현면 소금쟁이길 5(탄현면)",
    "address": "경기도 파주시 탄현면 법흥리 1600-10",
    "businessStatus": "영업",
    "hasTrashBag": true,
    "hasSpecialBag": false,
    "hasLargeWasteSticker": true,
    "adminVerified": false,
    "dataReferenceDate": "2026-03-27"
  },
  {
    "name": "번창마트",
    "lat": 37.95509218195468,
    "lng": 126.91824806743162,
    "roadAddress": "경기도 파주시 적성면 솥뒤로 8-1(적성면, 번창마트)",
    "address": "경기도 파주시 적성면 마지리 46-2 번창마트",
    "businessStatus": "영업",
    "hasTrashBag": true,
    "hasSpecialBag": true,
    "hasLargeWasteSticker": true,
    "adminVerified": false,
    "dataReferenceDate": "2026-03-27"
  },
  {
    "name": "세븐일레븐 파주봉서산로점",
    "lat": 37.84492596359191,
    "lng": 126.79609583614366,
    "roadAddress": "경기도 파주시 파주읍 봉서산로 53(파주읍)",
    "address": "경기도 파주시 파주읍 봉서리 256-7",
    "businessStatus": "영업",
    "hasTrashBag": true,
    "hasSpecialBag": false,
    "hasLargeWasteSticker": true,
    "adminVerified": false,
    "dataReferenceDate": "2026-03-27"
  },
  {
    "name": "지에스25 당하늘품점",
    "lat": 37.74645429117984,
    "lng": 126.75105938286188,
    "roadAddress": "경기도 파주시 당하길 15(당하동)",
    "address": "경기도 파주시 당하동 203-2",
    "businessStatus": "영업",
    "hasTrashBag": true,
    "hasSpecialBag": true,
    "hasLargeWasteSticker": true,
    "adminVerified": false,
    "dataReferenceDate": "2026-03-27"
  },
  {
    "name": "세븐일레븐 파주평화로점",
    "lat": 37.778928713871586,
    "lng": 126.70344217579806,
    "roadAddress": "경기도 파주시 탄현면 하늘소로 59-33(탄현면)",
    "address": "경기도 파주시 탄현면 법흥리 1682-3",
    "businessStatus": "영업",
    "hasTrashBag": true,
    "hasSpecialBag": false,
    "hasLargeWasteSticker": true,
    "adminVerified": false,
    "dataReferenceDate": "2026-03-27"
  },
  {
    "name": "지에스(GS)25 운정초롱꽃점",
    "lat": 37.714328386273294,
    "lng": 126.70734414703955,
    "roadAddress": "경기도 파주시 초롱꽃로 17(동패동, 초롱꽃마을3단지)",
    "address": "경기도 파주시 동패동 2070 초롱꽃마을3단지",
    "businessStatus": "영업",
    "hasTrashBag": true,
    "hasSpecialBag": true,
    "hasLargeWasteSticker": true,
    "adminVerified": false,
    "dataReferenceDate": "2026-03-26"
  },
  {
    "name": "한국유통 교하본점",
    "lat": 37.72436531991743,
    "lng": 126.7111622355894,
    "roadAddress": "경기도 파주시 숲속노을로 267(문발동)",
    "address": "경기도 파주시 문발동 562-1",
    "businessStatus": "영업",
    "hasTrashBag": true,
    "hasSpecialBag": true,
    "hasLargeWasteSticker": true,
    "adminVerified": false,
    "dataReferenceDate": "2026-03-26"
  },
  {
    "name": "씨유 운정파르세나점",
    "lat": 37.73555297605078,
    "lng": 126.73330539885542,
    "roadAddress": "경기도 파주시 청암로 82(다율동, 운정신도시 푸르지오 파르세나)",
    "address": "경기도 파주시 다율동 1035 운정신도시 푸르지오 파르세나",
    "businessStatus": "영업",
    "hasTrashBag": true,
    "hasSpecialBag": false,
    "hasLargeWasteSticker": true,
    "adminVerified": false,
    "dataReferenceDate": "2026-03-26"
  },
  {
    "name": "팜스지티엑스",
    "lat": 37.712447024832876,
    "lng": 126.71683184050076,
    "roadAddress": "경기도 파주시 초롱꽃로 115(동패동)",
    "address": "경기도 파주시 동패동 2078-4",
    "businessStatus": "영업",
    "hasTrashBag": true,
    "hasSpecialBag": true,
    "hasLargeWasteSticker": true,
    "adminVerified": false,
    "dataReferenceDate": "2026-03-26"
  },
  {
    "name": "지에스25 교하노을빛16단지점",
    "lat": 37.72487442272396,
    "lng": 126.70588653956938,
    "roadAddress": "경기도 파주시 노을빛로 41(문발동, 노을빛마을 16단지)",
    "address": "경기도 파주시 문발동 558 노을빛마을 16단지",
    "businessStatus": "영업",
    "hasTrashBag": true,
    "hasSpecialBag": false,
    "hasLargeWasteSticker": true,
    "adminVerified": false,
    "dataReferenceDate": "2026-03-26"
  },
  {
    "name": "지에스25 운정비발디점",
    "lat": 37.73270779225462,
    "lng": 126.76493043142803,
    "roadAddress": "경기도 파주시 가람로116번길 128(와동동, 가람마을7단지 한라비발디)",
    "address": "경기도 파주시 와동동 1338 가람마을7단지 한라비발디",
    "businessStatus": "영업",
    "hasTrashBag": true,
    "hasSpecialBag": false,
    "hasLargeWasteSticker": true,
    "adminVerified": false,
    "dataReferenceDate": "2026-03-26"
  },
  {
    "name": "지에스(GS)25 운정한울공원점",
    "lat": 37.70900312368836,
    "lng": 126.73727852343652,
    "roadAddress": "경기도 파주시 동패로63번길 1(동패동)",
    "address": "경기도 파주시 동패동 1940-2",
    "businessStatus": "영업",
    "hasTrashBag": true,
    "hasSpecialBag": false,
    "hasLargeWasteSticker": true,
    "adminVerified": false,
    "dataReferenceDate": "2026-03-26"
  },
  {
    "name": "씨유 운정반석프라자점",
    "lat": 37.71265460196089,
    "lng": 126.72043104393626,
    "roadAddress": "경기도 파주시 청석로 115(동패동)",
    "address": "경기도 파주시 동패동 2080-3",
    "businessStatus": "영업",
    "hasTrashBag": true,
    "hasSpecialBag": true,
    "hasLargeWasteSticker": true,
    "adminVerified": false,
    "dataReferenceDate": "2026-03-26"
  },
  {
    "name": "씨유 파주교하일등점",
    "lat": 37.72613586553809,
    "lng": 126.71779130657244,
    "roadAddress": "경기도 파주시 청석로 272(동패동, 센타프라자1)",
    "address": "경기도 파주시 동패동 1695-2 센타프라자1",
    "businessStatus": "영업",
    "hasTrashBag": true,
    "hasSpecialBag": false,
    "hasLargeWasteSticker": true,
    "adminVerified": false,
    "dataReferenceDate": "2026-03-26"
  },
  {
    "name": "지에스25 운정본점",
    "lat": 37.72779113613012,
    "lng": 126.75334139853331,
    "roadAddress": "경기도 파주시 미래로 562(와동동, 가람마을 9단지 남양휴튼)",
    "address": "경기도 파주시 와동동 1344 가람마을 9단지 남양휴튼",
    "businessStatus": "영업",
    "hasTrashBag": true,
    "hasSpecialBag": false,
    "hasLargeWasteSticker": true,
    "adminVerified": false,
    "dataReferenceDate": "2026-03-26"
  },
  {
    "name": "지에스25 운정별숲점",
    "lat": 37.73672626839474,
    "lng": 126.76467705154096,
    "roadAddress": "경기도 파주시 가람로134번길 24(와동동, 별숲오르트 가람마을 12단지)",
    "address": "경기도 파주시 와동동 1521 별숲오르트 가람마을 12단지",
    "businessStatus": "영업",
    "hasTrashBag": true,
    "hasSpecialBag": true,
    "hasLargeWasteSticker": true,
    "adminVerified": false,
    "dataReferenceDate": "2026-03-26"
  },
  {
    "name": "씨유 운정놀이터점",
    "lat": 37.72026284688409,
    "lng": 126.71548114083735,
    "roadAddress": "경기도 파주시 책향기로 241(동패동)",
    "address": "경기도 파주시 동패동 1737-5",
    "businessStatus": "영업",
    "hasTrashBag": true,
    "hasSpecialBag": true,
    "hasLargeWasteSticker": true,
    "adminVerified": false,
    "dataReferenceDate": "2026-03-26"
  },
  {
    "name": "야당 재래시장",
    "lat": 37.71107553588917,
    "lng": 126.75946430371096,
    "roadAddress": "경기도 파주시 경의로 1050(야당동, 센트럴파크리움), 103호",
    "address": "경기도 파주시 야당동 1056-2 센트럴파크리움, 103호",
    "businessStatus": "영업",
    "hasTrashBag": true,
    "hasSpecialBag": false,
    "hasLargeWasteSticker": false,
    "adminVerified": false,
    "dataReferenceDate": "2026-03-26"
  },
  {
    "name": "씨유 운정이타워점",
    "lat": 37.73214593136338,
    "lng": 126.72802276319683,
    "roadAddress": "경기도 파주시 해올1길 31(다율동, 이타워2), 운정이타워 2차오피스텔",
    "address": "경기도 파주시 다율동 1041-3 이타워2, 운정이타워 2차오피스텔",
    "businessStatus": "영업",
    "hasTrashBag": true,
    "hasSpecialBag": false,
    "hasLargeWasteSticker": true,
    "adminVerified": false,
    "dataReferenceDate": "2026-03-26"
  },
  {
    "name": "지에스25 운정한울점",
    "lat": 37.71002249403063,
    "lng": 126.7406169892216,
    "roadAddress": "경기도 파주시 한울로 84(동패동, 휴먼시아 한울마을)",
    "address": "경기도 파주시 동패동 1768 휴먼시아 한울마을",
    "businessStatus": "영업",
    "hasTrashBag": true,
    "hasSpecialBag": true,
    "hasLargeWasteSticker": true,
    "adminVerified": false,
    "dataReferenceDate": "2026-03-26"
  },
  {
    "name": "이마트24R 문산허브점",
    "lat": 37.861650401480425,
    "lng": 126.77442692480467,
    "roadAddress": "경기도 파주시 문산읍 당동1로 25-18(문산읍)",
    "address": "경기도 파주시 문산읍 당동리 916-4",
    "businessStatus": "영업",
    "hasTrashBag": true,
    "hasSpecialBag": false,
    "hasLargeWasteSticker": true,
    "adminVerified": false,
    "dataReferenceDate": "2026-03-26"
  },
  {
    "name": "GS슈퍼 파주야당점(한빛5단지)",
    "lat": 37.71688497511538,
    "lng": 126.7576680549201,
    "roadAddress": "경기도 파주시 심학산로 594(야당동, 한빛마을5단지 캐슬앤칸타빌)",
    "address": "경기도 파주시 야당동 991 한빛마을5단지 캐슬앤칸타빌",
    "businessStatus": "영업",
    "hasTrashBag": true,
    "hasSpecialBag": true,
    "hasLargeWasteSticker": true,
    "adminVerified": false,
    "dataReferenceDate": "2026-03-26"
  },
  {
    "name": "CU 파주해솔점(롯데리아옆)",
    "lat": 37.73242413757975,
    "lng": 126.75109369659789,
    "roadAddress": "경기도 파주시 미래로 620(와동동, 해솔프라자)",
    "address": "경기도 파주시 와동동 1301-4 해솔프라자",
    "businessStatus": "영업",
    "hasTrashBag": true,
    "hasSpecialBag": true,
    "hasLargeWasteSticker": true,
    "adminVerified": false,
    "dataReferenceDate": "2026-03-26"
  },
  {
    "name": "GS25 운정호수점",
    "lat": 37.71688497511538,
    "lng": 126.7576680549201,
    "roadAddress": "경기도 파주시 심학산로 594(야당동, 한빛마을5단지 캐슬앤칸타빌), 2동 105호",
    "address": "경기도 파주시 야당동 991 한빛마을5단지 캐슬앤칸타빌, 2동 105호",
    "businessStatus": "영업",
    "hasTrashBag": true,
    "hasSpecialBag": true,
    "hasLargeWasteSticker": true,
    "adminVerified": false,
    "dataReferenceDate": "2026-03-26"
  },
  {
    "name": "지에스25 운정8단지점(한빛8단지",
    "lat": 37.70980404113835,
    "lng": 126.7569555170428,
    "roadAddress": "경기도 파주시 와석순환로 15(야당동, 운정 아모리움 한빛마을)",
    "address": "경기도 파주시 야당동 1031 운정 아모리움 한빛마을",
    "businessStatus": "영업",
    "hasTrashBag": true,
    "hasSpecialBag": true,
    "hasLargeWasteSticker": true,
    "adminVerified": false,
    "dataReferenceDate": "2026-03-26"
  },
  {
    "name": "씨유 운정한빛6단지점",
    "lat": 37.71122686239146,
    "lng": 126.74955578686702,
    "roadAddress": "경기도 파주시 와석순환로 87(야당동, 한빛마을6단지)",
    "address": "경기도 파주시 야당동 1023 한빛마을6단지",
    "businessStatus": "영업",
    "hasTrashBag": true,
    "hasSpecialBag": true,
    "hasLargeWasteSticker": true,
    "adminVerified": false,
    "dataReferenceDate": "2026-03-26"
  },
  {
    "name": "CU 교하다율점",
    "lat": 37.727835607952365,
    "lng": 126.71666713955985,
    "roadAddress": "경기도 파주시 순못길 122-22(다율동)",
    "address": "경기도 파주시 다율동 991-9",
    "businessStatus": "영업",
    "hasTrashBag": true,
    "hasSpecialBag": true,
    "hasLargeWasteSticker": true,
    "adminVerified": false,
    "dataReferenceDate": "2026-03-26"
  },
  {
    "name": "GS25 교하본점(대원,효성APT)",
    "lat": 37.72870998825206,
    "lng": 126.71775024844098,
    "roadAddress": "경기도 파주시 청석로 300(다율동, 청석마을대원효성아파트)",
    "address": "경기도 파주시 다율동 986 청석마을대원효성아파트",
    "businessStatus": "영업",
    "hasTrashBag": true,
    "hasSpecialBag": true,
    "hasLargeWasteSticker": true,
    "adminVerified": false,
    "dataReferenceDate": "2026-03-26"
  },
  {
    "name": "씨유 파주산남로점",
    "lat": 37.6968412,
    "lng": 126.7028341,
    "roadAddress": "경기도 파주시 산남동 52-1",
    "address": "경기도 파주시 산남동 52-1",
    "businessStatus": "영업",
    "hasTrashBag": true,
    "hasSpecialBag": true,
    "hasLargeWasteSticker": true,
    "adminVerified": false,
    "dataReferenceDate": "2026-03-26"
  },
  {
    "name": "씨유 운정제일점",
    "lat": 37.70951191853178,
    "lng": 126.73816891263843,
    "roadAddress": "경기도 파주시 동패로 73(동패동)",
    "address": "경기도 파주시 동패동 1933",
    "businessStatus": "영업",
    "hasTrashBag": true,
    "hasSpecialBag": false,
    "hasLargeWasteSticker": true,
    "adminVerified": false,
    "dataReferenceDate": "2026-03-26"
  },
  {
    "name": "지에스25 운정더클래스점",
    "lat": 37.711466140546754,
    "lng": 126.74024468555126,
    "roadAddress": "경기도 파주시 동패로 98(동패동, 한울마을 3단지), 상가103호",
    "address": "경기도 파주시 동패동 1752 한울마을 3단지, 상가103호",
    "businessStatus": "영업",
    "hasTrashBag": true,
    "hasSpecialBag": false,
    "hasLargeWasteSticker": true,
    "adminVerified": false,
    "dataReferenceDate": "2026-03-26"
  },
  {
    "name": "씨유 운정한울점",
    "lat": 37.71015771384622,
    "lng": 126.74263540707489,
    "roadAddress": "경기도 파주시 한울로 101(동패동, 휴먼시아한울마을), 1층 상가동 101",
    "address": "경기도 파주시 동패동 1753 휴먼시아한울마을, 1층 상가동 101",
    "businessStatus": "영업",
    "hasTrashBag": true,
    "hasSpecialBag": true,
    "hasLargeWasteSticker": true,
    "adminVerified": false,
    "dataReferenceDate": "2026-03-26"
  },
  {
    "name": "싸군마켓 파주운정점",
    "lat": 37.708921241125275,
    "lng": 126.7457730710559,
    "roadAddress": "경기도 파주시 미래로 347(동패동, 한울마을7단지 삼부르네상스 아파트), 상가 101호",
    "address": "경기도 파주시 동패동 1772 한울마을7단지 삼부르네상스 아파트, 상가 101호",
    "businessStatus": "영업",
    "hasTrashBag": true,
    "hasSpecialBag": true,
    "hasLargeWasteSticker": true,
    "adminVerified": false,
    "dataReferenceDate": "2026-03-26"
  },
  {
    "name": "씨유 운정한울6단지점",
    "lat": 37.70968676687505,
    "lng": 126.74270028133482,
    "roadAddress": "경기도 파주시 한울로 100(동패동, 아모리움 에듀파크), 상가동 101호",
    "address": "경기도 파주시 동패동 1771 아모리움 에듀파크, 상가동 101호",
    "businessStatus": "영업",
    "hasTrashBag": true,
    "hasSpecialBag": true,
    "hasLargeWasteSticker": true,
    "adminVerified": false,
    "dataReferenceDate": "2026-03-26"
  },
  {
    "name": "씨유 운정삼성프라자점",
    "lat": 37.7114038994331,
    "lng": 126.7458518019693,
    "roadAddress": "경기도 파주시 미래로 375(동패동, 삼성메디컬프라자)",
    "address": "경기도 파주시 동패동 1759-5 삼성메디컬프라자",
    "businessStatus": "영업",
    "hasTrashBag": true,
    "hasSpecialBag": true,
    "hasLargeWasteSticker": true,
    "adminVerified": false,
    "dataReferenceDate": "2026-03-26"
  },
  {
    "name": "GS25 교하사랑점",
    "lat": 37.72138808938982,
    "lng": 126.7190194079556,
    "roadAddress": "경기도 파주시 책향기로 207(동패동, 책향기마을우남퍼스트빌아파트), 101~102호",
    "address": "경기도 파주시 동패동 1711 책향기마을우남퍼스트빌아파트, 101~102호",
    "businessStatus": "영업",
    "hasTrashBag": true,
    "hasSpecialBag": true,
    "hasLargeWasteSticker": true,
    "adminVerified": false,
    "dataReferenceDate": "2026-03-26"
  },
  {
    "name": "씨유 운정이편한점",
    "lat": 37.708150627016416,
    "lng": 126.72248700724407,
    "roadAddress": "경기도 파주시 양지로 120(동패동, e편한세상 운정 어반프라임), 단지 내 상가",
    "address": "경기도 파주시 동패동 2129 e편한세상 운정 어반프라임, 단지 내 상가",
    "businessStatus": "영업",
    "hasTrashBag": true,
    "hasSpecialBag": true,
    "hasLargeWasteSticker": true,
    "adminVerified": false,
    "dataReferenceDate": "2026-03-26"
  },
  {
    "name": "씨유 아이파크점",
    "lat": 37.71707941491948,
    "lng": 126.73469529852055,
    "roadAddress": "경기도 파주시 심학산로 384(동패동, 운정신도시 IPARK), 상가1동 12호, 13호",
    "address": "경기도 파주시 동패동 1781 운정신도시 IPARK, 상가1동 12호, 13호",
    "businessStatus": "영업",
    "hasTrashBag": true,
    "hasSpecialBag": true,
    "hasLargeWasteSticker": true,
    "adminVerified": false,
    "dataReferenceDate": "2026-03-26"
  },
  {
    "name": "씨유 문발중앙점",
    "lat": 37.718937248986286,
    "lng": 126.70763021681005,
    "roadAddress": "경기도 파주시 꽃창포길 14(문발동)",
    "address": "경기도 파주시 문발동 619-11",
    "businessStatus": "영업",
    "hasTrashBag": true,
    "hasSpecialBag": true,
    "hasLargeWasteSticker": true,
    "adminVerified": false,
    "dataReferenceDate": "2026-03-26"
  },
  {
    "name": "지에스25 교하타운점",
    "lat": 37.71914319693629,
    "lng": 126.71164389005952,
    "roadAddress": "경기도 파주시 돌단풍길 6(문발동)",
    "address": "경기도 파주시 문발동 612-5",
    "businessStatus": "영업",
    "hasTrashBag": true,
    "hasSpecialBag": false,
    "hasLargeWasteSticker": true,
    "adminVerified": false,
    "dataReferenceDate": "2026-03-26"
  },
  {
    "name": "이마트24 파주공방거리점",
    "lat": 37.707005289799525,
    "lng": 126.68655568010185,
    "roadAddress": "경기도 파주시 문발로 140(문발동, 점프존상가), 109호",
    "address": "경기도 파주시 문발동 531-2 점프존상가, 109호",
    "businessStatus": "영업",
    "hasTrashBag": true,
    "hasSpecialBag": true,
    "hasLargeWasteSticker": true,
    "adminVerified": false,
    "dataReferenceDate": "2026-03-26"
  },
  {
    "name": "이마트24R 교하문발점",
    "lat": 37.72778030696951,
    "lng": 126.70589306752254,
    "roadAddress": "경기도 파주시 교하로 914(문발동, 아이리스타운), 101,102호",
    "address": "경기도 파주시 문발동 549-5 아이리스타운, 101,102호",
    "businessStatus": "영업",
    "hasTrashBag": true,
    "hasSpecialBag": true,
    "hasLargeWasteSticker": true,
    "adminVerified": false,
    "dataReferenceDate": "2026-03-26"
  },
  {
    "name": "지에스더프레시 운정아이파크점",
    "lat": 37.71707941491948,
    "lng": 126.73469529852055,
    "roadAddress": "경기도 파주시 심학산로 384(동패동, 운정신도시 IPARK)",
    "address": "경기도 파주시 동패동 1781 운정신도시 IPARK",
    "businessStatus": "영업",
    "hasTrashBag": true,
    "hasSpecialBag": true,
    "hasLargeWasteSticker": true,
    "adminVerified": false,
    "dataReferenceDate": "2026-03-26"
  },
  {
    "name": "씨유 운정가람11단지점",
    "lat": 37.72585608729632,
    "lng": 126.75559988741409,
    "roadAddress": "경기도 파주시 가온로 264(와동동, 가람마을11단지 동문굿모닝힐아파트), 상가동 1층 101호",
    "address": "경기도 파주시 와동동 1368 가람마을11단지 동문굿모닝힐아파트, 상가동 1층 101호",
    "businessStatus": "영업",
    "hasTrashBag": true,
    "hasSpecialBag": true,
    "hasLargeWasteSticker": true,
    "adminVerified": false,
    "dataReferenceDate": "2026-03-26"
  },
  {
    "name": "씨유 운정빌리지점",
    "lat": 37.73485621685176,
    "lng": 126.75215086866784,
    "roadAddress": "경기도 파주시 가람로21번길 19(와동동)",
    "address": "경기도 파주시 와동동 1624-6",
    "businessStatus": "영업",
    "hasTrashBag": true,
    "hasSpecialBag": true,
    "hasLargeWasteSticker": true,
    "adminVerified": false,
    "dataReferenceDate": "2026-03-26"
  },
  {
    "name": "지에스25 운정사랑점",
    "lat": 37.73016935930659,
    "lng": 126.76855618238051,
    "roadAddress": "경기도 파주시 소리천로 203(와동동, 가람마을14단지), 상가동1층 102,103호",
    "address": "경기도 파주시 와동동 1475 가람마을14단지, 상가동1층 102,103호",
    "businessStatus": "영업",
    "hasTrashBag": true,
    "hasSpecialBag": true,
    "hasLargeWasteSticker": true,
    "adminVerified": false,
    "dataReferenceDate": "2026-03-26"
  },
  {
    "name": "씨유 운정지식산업센터점",
    "lat": 37.73269426642458,
    "lng": 126.76672572985247,
    "roadAddress": "경기도 파주시 가람로116번길 107(와동동, 운정한강듀클래스), 상가동 1층 102호",
    "address": "경기도 파주시 와동동 1484 운정한강듀클래스, 상가동 1층 102호",
    "businessStatus": "영업",
    "hasTrashBag": true,
    "hasSpecialBag": true,
    "hasLargeWasteSticker": true,
    "adminVerified": false,
    "dataReferenceDate": "2026-03-26"
  },
  {
    "name": "씨유 운정애플점",
    "lat": 37.72607286483172,
    "lng": 126.76144193904354,
    "roadAddress": "경기도 파주시 경의로 1218(와동동, 월드타워12차), 116호(와동동, 월드타워12차)",
    "address": "경기도 파주시 와동동 1431-1 월드타워12차, 116호(와동동, 월드타워12차)",
    "businessStatus": "영업",
    "hasTrashBag": true,
    "hasSpecialBag": false,
    "hasLargeWasteSticker": true,
    "adminVerified": false,
    "dataReferenceDate": "2026-03-26"
  },
  {
    "name": "코리아세븐 운정센트럴점",
    "lat": 37.727743297741895,
    "lng": 126.76127546898883,
    "roadAddress": "경기도 파주시 경의로 1240(와동동, 운정역 센트럴 하이뷰)",
    "address": "경기도 파주시 와동동 1433 운정역 센트럴 하이뷰",
    "businessStatus": "영업",
    "hasTrashBag": true,
    "hasSpecialBag": true,
    "hasLargeWasteSticker": false,
    "adminVerified": false,
    "dataReferenceDate": "2026-03-26"
  },
  {
    "name": "씨유 운정스타힐스점",
    "lat": 37.73882753376222,
    "lng": 126.76058250131896,
    "roadAddress": "경기도 파주시 가람로 109(와동동, 별하람마을3단지 서희스타힐스엔에이치에프)",
    "address": "경기도 파주시 와동동 739 별하람마을3단지 서희스타힐스엔에이치에프",
    "businessStatus": "영업",
    "hasTrashBag": true,
    "hasSpecialBag": true,
    "hasLargeWasteSticker": true,
    "adminVerified": false,
    "dataReferenceDate": "2026-03-26"
  },
  {
    "name": "페이펄문구센터 운정지점",
    "lat": 37.73270637636357,
    "lng": 126.7509455071849,
    "roadAddress": "경기도 파주시 미래로 622(와동동, 대흥프라자)",
    "address": "경기도 파주시 와동동 1301-3 대흥프라자",
    "businessStatus": "영업",
    "hasTrashBag": true,
    "hasSpecialBag": false,
    "hasLargeWasteSticker": false,
    "adminVerified": false,
    "dataReferenceDate": "2026-03-26"
  },
  {
    "name": "이마트24 운정스퀘어점",
    "lat": 37.729329745922925,
    "lng": 126.76290579076081,
    "roadAddress": "경기도 파주시 책향기로 830(와동동), 1층 114, 115호",
    "address": "경기도 파주시 와동동 1456-3, 1층 114, 115호",
    "businessStatus": "영업",
    "hasTrashBag": true,
    "hasSpecialBag": true,
    "hasLargeWasteSticker": true,
    "adminVerified": false,
    "dataReferenceDate": "2026-03-26"
  },
  {
    "name": "지에스25 호수공원럭키점",
    "lat": 37.72005876563155,
    "lng": 126.75289415579725,
    "roadAddress": "경기도 파주시 가온로 184(와동동)",
    "address": "경기도 파주시 와동동 1400-4",
    "businessStatus": "영업",
    "hasTrashBag": true,
    "hasSpecialBag": true,
    "hasLargeWasteSticker": true,
    "adminVerified": false,
    "dataReferenceDate": "2026-03-26"
  },
  {
    "name": "세븐일레븐 운정아름터점",
    "lat": 37.72927093411088,
    "lng": 126.76376052062427,
    "roadAddress": "경기도 파주시 책향기로 836(와동동, 아름터타워), 113, 114호",
    "address": "경기도 파주시 와동동 1458-1 아름터타워, 113, 114호",
    "businessStatus": "영업",
    "hasTrashBag": true,
    "hasSpecialBag": false,
    "hasLargeWasteSticker": true,
    "adminVerified": false,
    "dataReferenceDate": "2026-03-26"
  },
  {
    "name": "세븐일레븐 교하동문점",
    "lat": 37.724504703829126,
    "lng": 126.72067220162673,
    "roadAddress": "경기도 파주시 책향기로 441(동패동, 책향기마을10단지동문굿모닝힐)",
    "address": "경기도 파주시 동패동 1698 책향기마을10단지동문굿모닝힐",
    "businessStatus": "영업",
    "hasTrashBag": true,
    "hasSpecialBag": true,
    "hasLargeWasteSticker": true,
    "adminVerified": false,
    "dataReferenceDate": "2026-03-26"
  },
  {
    "name": "세븐일레븐 엘크루가람마을점",
    "lat": 37.735264196090135,
    "lng": 126.76356572237577,
    "roadAddress": "경기도 파주시 가람로116번길 40(와동동, 엘크루 가람마을5단지)",
    "address": "경기도 파주시 와동동 1332 엘크루 가람마을5단지",
    "businessStatus": "영업",
    "hasTrashBag": true,
    "hasSpecialBag": true,
    "hasLargeWasteSticker": true,
    "adminVerified": false,
    "dataReferenceDate": "2026-03-26"
  },
  {
    "name": "씨유 운정엠버점",
    "lat": 37.72903605611767,
    "lng": 126.76113487194095,
    "roadAddress": "경기도 파주시 경의로 1250(와동동, 엠버418오피스텔)",
    "address": "경기도 파주시 와동동 1454 엠버418오피스텔",
    "businessStatus": "영업",
    "hasTrashBag": true,
    "hasSpecialBag": false,
    "hasLargeWasteSticker": true,
    "adminVerified": false,
    "dataReferenceDate": "2026-03-26"
  },
  {
    "name": "씨유 운정이스트점",
    "lat": 37.74268922756292,
    "lng": 126.76015121529166,
    "roadAddress": "경기도 파주시 별하람로 63(와동동)",
    "address": "경기도 파주시 와동동 1664-478",
    "businessStatus": "영업",
    "hasTrashBag": true,
    "hasSpecialBag": true,
    "hasLargeWasteSticker": true,
    "adminVerified": false,
    "dataReferenceDate": "2026-03-26"
  },
  {
    "name": "지에스25 파주문발점",
    "lat": 37.729468447466246,
    "lng": 126.70357668179749,
    "roadAddress": "경기도 파주시 지목로 130(문발동)",
    "address": "경기도 파주시 문발동 33-15",
    "businessStatus": "영업",
    "hasTrashBag": true,
    "hasSpecialBag": false,
    "hasLargeWasteSticker": true,
    "adminVerified": false,
    "dataReferenceDate": "2026-03-26"
  },
  {
    "name": "은성식자재마트",
    "lat": 37.72550412311522,
    "lng": 126.75730768995645,
    "roadAddress": "경기도 파주시 가온로 280(와동동)",
    "address": "경기도 파주시 와동동 1371-1",
    "businessStatus": "영업",
    "hasTrashBag": true,
    "hasSpecialBag": false,
    "hasLargeWasteSticker": false,
    "adminVerified": false,
    "dataReferenceDate": "2026-03-26"
  },
  {
    "name": "지에스25 운정사라방",
    "lat": 37.71435667850663,
    "lng": 126.81898263252171,
    "roadAddress": "경기도 고양시 일산동구 문원길 82-4(지영동)",
    "address": "경기도 고양시 일산동구 지영동 413-1",
    "businessStatus": "영업",
    "hasTrashBag": true,
    "hasSpecialBag": true,
    "hasLargeWasteSticker": true,
    "adminVerified": false,
    "dataReferenceDate": "2026-03-26"
  },
  {
    "name": "비지에프리테일 운정아이파크점",
    "lat": 37.71707941491948,
    "lng": 126.73469529852055,
    "roadAddress": "경기도 파주시 심학산로 384(동패동, 운정신도시 IPARK)",
    "address": "경기도 파주시 동패동 1781 운정신도시 IPARK",
    "businessStatus": "영업",
    "hasTrashBag": true,
    "hasSpecialBag": false,
    "hasLargeWasteSticker": true,
    "adminVerified": false,
    "dataReferenceDate": "2026-03-26"
  },
  {
    "name": "씨유 운정가람2단지점",
    "lat": 37.730509660422214,
    "lng": 126.75478614690839,
    "roadAddress": "경기도 파주시 책향기로 757(와동동, 가람마을2단지휴먼시아아파트)",
    "address": "경기도 파주시 와동동 1311 가람마을2단지휴먼시아아파트",
    "businessStatus": "영업",
    "hasTrashBag": true,
    "hasSpecialBag": true,
    "hasLargeWasteSticker": true,
    "adminVerified": false,
    "dataReferenceDate": "2026-03-26"
  },
  {
    "name": "세븐일레븐 파주두일점",
    "lat": 37.719566782109986,
    "lng": 126.71118570927446,
    "roadAddress": "경기도 파주시 돌단풍길 15(문발동)",
    "address": "경기도 파주시 문발동 611-2",
    "businessStatus": "영업",
    "hasTrashBag": true,
    "hasSpecialBag": true,
    "hasLargeWasteSticker": true,
    "adminVerified": false,
    "dataReferenceDate": "2026-03-26"
  },
  {
    "name": "씨유 파주가람제일점",
    "lat": 37.73632918170931,
    "lng": 126.75084718618905,
    "roadAddress": "경기도 파주시 가람로21번길 61-26(와동동)",
    "address": "경기도 파주시 와동동 1640-4",
    "businessStatus": "영업",
    "hasTrashBag": true,
    "hasSpecialBag": false,
    "hasLargeWasteSticker": true,
    "adminVerified": false,
    "dataReferenceDate": "2026-03-26"
  },
  {
    "name": "씨유 파주신촌점",
    "lat": 37.734714545104524,
    "lng": 126.70248977341068,
    "roadAddress": "경기도 파주시 소라지로 79-3(신촌동)",
    "address": "경기도 파주시 신촌동 29-11",
    "businessStatus": "영업",
    "hasTrashBag": true,
    "hasSpecialBag": false,
    "hasLargeWasteSticker": true,
    "adminVerified": false,
    "dataReferenceDate": "2026-03-26"
  },
  {
    "name": "한국유통 새말점",
    "lat": 37.86584379255856,
    "lng": 126.80438432748689,
    "roadAddress": "경기도 파주시 문산읍 독서울1길 14(문산읍, 50km마트)",
    "address": "경기도 파주시 문산읍 선유리 420-1 50km마트",
    "businessStatus": "영업",
    "hasTrashBag": true,
    "hasSpecialBag": true,
    "hasLargeWasteSticker": true,
    "adminVerified": false,
    "dataReferenceDate": "2026-03-25"
  },
  {
    "name": "성심철물",
    "lat": 37.75780788294984,
    "lng": 126.7762222616396,
    "roadAddress": "경기도 파주시 금정로 28-1(금촌동)",
    "address": "경기도 파주시 금촌동 773-8",
    "businessStatus": "영업",
    "hasTrashBag": true,
    "hasSpecialBag": true,
    "hasLargeWasteSticker": true,
    "adminVerified": false,
    "dataReferenceDate": "2026-03-25"
  },
  {
    "name": "성웅",
    "lat": 37.85850917743409,
    "lng": 126.79059629134453,
    "roadAddress": "경기도 파주시 문산읍 우계로457번길 53(문산읍)",
    "address": "경기도 파주시 문산읍 선유리 676",
    "businessStatus": "영업",
    "hasTrashBag": true,
    "hasSpecialBag": true,
    "hasLargeWasteSticker": false,
    "adminVerified": false,
    "dataReferenceDate": "2026-03-25"
  },
  {
    "name": "씨스페이스 문산점",
    "lat": 37.867765545032235,
    "lng": 126.78504531835787,
    "roadAddress": "경기도 파주시 문산읍 당동2로 1(문산읍, 홈프라자), 102호",
    "address": "경기도 파주시 문산읍 당동리 888-4 홈프라자, 102호",
    "businessStatus": "영업",
    "hasTrashBag": true,
    "hasSpecialBag": false,
    "hasLargeWasteSticker": true,
    "adminVerified": false,
    "dataReferenceDate": "2026-03-25"
  },
  {
    "name": "세븐일레븐 문산점",
    "lat": 37.8544252765445,
    "lng": 126.78637969696969,
    "roadAddress": "경기도 파주시 문산읍 문향로 28(문산읍, 한진상가), 104-2호",
    "address": "경기도 파주시 문산읍 문산리 17-38 한진상가, 104-2호",
    "businessStatus": "영업",
    "hasTrashBag": true,
    "hasSpecialBag": false,
    "hasLargeWasteSticker": false,
    "adminVerified": false,
    "dataReferenceDate": "2026-03-25"
  },
  {
    "name": "대성유통",
    "lat": 37.857948077457614,
    "lng": 126.78121459135276,
    "roadAddress": "경기도 파주시 문산읍 독산로 19-1(문산읍)",
    "address": "경기도 파주시 문산읍 문산리 68-19",
    "businessStatus": "영업",
    "hasTrashBag": true,
    "hasSpecialBag": true,
    "hasLargeWasteSticker": true,
    "adminVerified": false,
    "dataReferenceDate": "2026-03-25"
  },
  {
    "name": "오렌지유통",
    "lat": 37.86314716471897,
    "lng": 126.77905587475412,
    "roadAddress": "경기도 파주시 문산읍 당동1로 12-1(문산읍, 문산당동4단지)",
    "address": "경기도 파주시 문산읍 당동리 908 문산당동4단지",
    "businessStatus": "영업",
    "hasTrashBag": true,
    "hasSpecialBag": false,
    "hasLargeWasteSticker": true,
    "adminVerified": false,
    "dataReferenceDate": "2026-03-25"
  },
  {
    "name": "지에스25 문산평화누리점",
    "lat": 37.86002895207501,
    "lng": 126.77746050517067,
    "roadAddress": "경기도 파주시 문산읍 방촌로 1626(문산읍)",
    "address": "경기도 파주시 문산읍 문산리 102-1",
    "businessStatus": "영업",
    "hasTrashBag": true,
    "hasSpecialBag": false,
    "hasLargeWasteSticker": false,
    "adminVerified": false,
    "dataReferenceDate": "2026-03-25"
  },
  {
    "name": "파주농업협동조합",
    "lat": 37.831583007116485,
    "lng": 126.8160085231636,
    "roadAddress": "경기도 파주시 파주읍 우계로 51(파주읍)",
    "address": "경기도 파주시 파주읍 파주리 484-18",
    "businessStatus": "영업",
    "hasTrashBag": true,
    "hasSpecialBag": true,
    "hasLargeWasteSticker": true,
    "adminVerified": false,
    "dataReferenceDate": "2026-03-26"
  },
  {
    "name": "중앙통상",
    "lat": 37.860844539493236,
    "lng": 126.7894522015149,
    "roadAddress": "경기도 파주시 문산읍 통일로 1718(문산읍)",
    "address": "경기도 파주시 문산읍 선유리 938-1",
    "businessStatus": "영업",
    "hasTrashBag": true,
    "hasSpecialBag": true,
    "hasLargeWasteSticker": true,
    "adminVerified": false,
    "dataReferenceDate": "2026-03-25"
  },
  {
    "name": "씨유 파주봉암점",
    "lat": 37.815275236897335,
    "lng": 126.79539140338173,
    "roadAddress": "경기도 파주시 파주읍 주라위길 78(파주읍, 고려케미칼)",
    "address": "경기도 파주시 파주읍 봉암리 516-2 고려케미칼",
    "businessStatus": "영업",
    "hasTrashBag": true,
    "hasSpecialBag": false,
    "hasLargeWasteSticker": true,
    "adminVerified": false,
    "dataReferenceDate": "2026-03-25"
  },
  {
    "name": "코사마트 교하점(구현대마트)",
    "lat": 37.75348434418705,
    "lng": 126.74567783041991,
    "roadAddress": "경기도 파주시 교하로 1389(교하동)",
    "address": "경기도 파주시 교하동 331-4",
    "businessStatus": "영업",
    "hasTrashBag": true,
    "hasSpecialBag": true,
    "hasLargeWasteSticker": true,
    "adminVerified": false,
    "dataReferenceDate": "2026-03-27"
  },
  {
    "name": "조리농협로컬푸드직매장",
    "lat": 37.74364402282732,
    "lng": 126.80875232887229,
    "roadAddress": "경기도 파주시 조리읍 봉천로 28(조리읍, 조리농협)",
    "address": "경기도 파주시 조리읍 봉일천리 210-16 조리농협",
    "businessStatus": "영업",
    "hasTrashBag": true,
    "hasSpecialBag": false,
    "hasLargeWasteSticker": true,
    "adminVerified": false,
    "dataReferenceDate": "2026-03-25"
  },
  {
    "name": "세븐일레븐 파주엘지점",
    "lat": 37.81070733285578,
    "lng": 126.77703925572649,
    "roadAddress": "경기도 파주시 월롱면 엘씨디로 16(월롱면, 신한은행)",
    "address": "경기도 파주시 월롱면 덕은리 1300 신한은행",
    "businessStatus": "영업",
    "hasTrashBag": true,
    "hasSpecialBag": false,
    "hasLargeWasteSticker": true,
    "adminVerified": false,
    "dataReferenceDate": "2026-03-26"
  },
  {
    "name": "지에스25 통일마을점",
    "lat": 37.775141880624474,
    "lng": 126.70219722738565,
    "roadAddress": "경기도 파주시 탄현면 사슴벌레로 27(탄현면, 왕수학교실)",
    "address": "경기도 파주시 탄현면 법흥리 1723-1 왕수학교실",
    "businessStatus": "영업",
    "hasTrashBag": true,
    "hasSpecialBag": true,
    "hasLargeWasteSticker": true,
    "adminVerified": false,
    "dataReferenceDate": "2026-03-27"
  },
  {
    "name": "씨유 파주천년가점",
    "lat": 37.76269412075325,
    "lng": 126.77628031755447,
    "roadAddress": "경기도 파주시 마무리길 77(금촌동)",
    "address": "경기도 파주시 금촌동 52-45",
    "businessStatus": "영업",
    "hasTrashBag": true,
    "hasSpecialBag": false,
    "hasLargeWasteSticker": true,
    "adminVerified": false,
    "dataReferenceDate": "2026-03-25"
  },
  {
    "name": "세븐일레븐 파주운정휴먼빌점",
    "lat": 37.714525757078,
    "lng": 126.75312065109615,
    "roadAddress": "경기도 파주시 미래로408번길 117(야당동, 한빛마을2단지휴먼빌레이크팰리스상가)",
    "address": "경기도 파주시 야당동 982 한빛마을2단지휴먼빌레이크팰리스상가",
    "businessStatus": "영업",
    "hasTrashBag": true,
    "hasSpecialBag": true,
    "hasLargeWasteSticker": true,
    "adminVerified": false,
    "dataReferenceDate": "2026-03-26"
  },
  {
    "name": "씨유 금촌평화점",
    "lat": 37.76063178120221,
    "lng": 126.77729044583342,
    "roadAddress": "경기도 파주시 중앙로 276(금촌동)",
    "address": "경기도 파주시 금촌동 768-17",
    "businessStatus": "영업",
    "hasTrashBag": true,
    "hasSpecialBag": false,
    "hasLargeWasteSticker": true,
    "adminVerified": false,
    "dataReferenceDate": "2026-03-24"
  },
  {
    "name": "씨유 파주운정산내로점",
    "lat": 37.727806473869705,
    "lng": 126.73650283220138,
    "roadAddress": "경기도 파주시 산내로104번길 21-14(목동동)",
    "address": "경기도 파주시 목동동 962",
    "businessStatus": "영업",
    "hasTrashBag": true,
    "hasSpecialBag": false,
    "hasLargeWasteSticker": true,
    "adminVerified": false,
    "dataReferenceDate": "2026-03-24"
  },
  {
    "name": "씨유 파주검산로드점",
    "lat": 37.77218648470219,
    "lng": 126.73213479630812,
    "roadAddress": "경기도 파주시 평화로 473-1(맥금동)",
    "address": "경기도 파주시 맥금동 901",
    "businessStatus": "영업",
    "hasTrashBag": true,
    "hasSpecialBag": true,
    "hasLargeWasteSticker": true,
    "adminVerified": false,
    "dataReferenceDate": "2026-03-24"
  },
  {
    "name": "지에스25 운정하늘구름점",
    "lat": 37.72751021680869,
    "lng": 126.73840758088619,
    "roadAddress": "경기도 파주시 산내로 98(목동동)",
    "address": "경기도 파주시 목동동 983-3",
    "businessStatus": "영업",
    "hasTrashBag": true,
    "hasSpecialBag": true,
    "hasLargeWasteSticker": true,
    "adminVerified": false,
    "dataReferenceDate": "2026-03-24"
  },
  {
    "name": "지에스25 운정타운점",
    "lat": 37.71162240134275,
    "lng": 126.76712016785962,
    "roadAddress": "경기도 파주시 하우고개길 158(야당동)",
    "address": "경기도 파주시 야당동 186-1",
    "businessStatus": "영업",
    "hasTrashBag": true,
    "hasSpecialBag": false,
    "hasLargeWasteSticker": true,
    "adminVerified": false,
    "dataReferenceDate": "2026-03-24"
  },
  {
    "name": "주식회사진로마트",
    "lat": 37.720487829974914,
    "lng": 126.74497830911531,
    "roadAddress": "경기도 파주시 가온로 112(목동동)",
    "address": "경기도 파주시 목동동 684-3",
    "businessStatus": "영업",
    "hasTrashBag": true,
    "hasSpecialBag": true,
    "hasLargeWasteSticker": true,
    "adminVerified": false,
    "dataReferenceDate": "2026-03-24"
  },
  {
    "name": "지에스(GS)25 금릉타운점",
    "lat": 37.7562200151232,
    "lng": 126.78246380021356,
    "roadAddress": "경기도 파주시 금릉이길 42(금촌동, 송학연립)",
    "address": "경기도 파주시 금촌동 795-2 송학연립",
    "businessStatus": "영업",
    "hasTrashBag": true,
    "hasSpecialBag": true,
    "hasLargeWasteSticker": true,
    "adminVerified": false,
    "dataReferenceDate": "2026-03-24"
  },
  {
    "name": "씨유 파주그린점",
    "lat": 37.7282373114001,
    "lng": 126.81478368645617,
    "roadAddress": "경기도 파주시 조리읍 대원로 66(조리읍, 그린시티동문아파트), 123,124호",
    "address": "경기도 파주시 조리읍 대원리 221-8 그린시티동문아파트, 123,124호",
    "businessStatus": "영업",
    "hasTrashBag": true,
    "hasSpecialBag": true,
    "hasLargeWasteSticker": true,
    "adminVerified": false,
    "dataReferenceDate": "2026-03-24"
  },
  {
    "name": "GS25 야당역점",
    "lat": 37.712489662809084,
    "lng": 126.76224608052172,
    "roadAddress": "경기도 파주시 송학1길 65(야당동)",
    "address": "경기도 파주시 야당동 421-38",
    "businessStatus": "영업",
    "hasTrashBag": true,
    "hasSpecialBag": false,
    "hasLargeWasteSticker": false,
    "adminVerified": false,
    "dataReferenceDate": "2026-03-24"
  },
  {
    "name": "gs25 야당롯데캐슬점",
    "lat": 37.710756142077955,
    "lng": 126.75716892084078,
    "roadAddress": "경기도 파주시 와석순환로 16(야당동, 롯데캐슬파크타운)",
    "address": "경기도 파주시 야당동 1016 롯데캐슬파크타운",
    "businessStatus": "영업",
    "hasTrashBag": true,
    "hasSpecialBag": false,
    "hasLargeWasteSticker": true,
    "adminVerified": false,
    "dataReferenceDate": "2026-03-24"
  },
  {
    "name": "GS25 야당명동점",
    "lat": 37.71381087723402,
    "lng": 126.759952639188,
    "roadAddress": "경기도 파주시 경의로 1080(야당동)",
    "address": "경기도 파주시 야당동 1070",
    "businessStatus": "영업",
    "hasTrashBag": true,
    "hasSpecialBag": false,
    "hasLargeWasteSticker": true,
    "adminVerified": false,
    "dataReferenceDate": "2026-03-24"
  },
  {
    "name": "GS수퍼마켓 파주파크타운점",
    "lat": 37.7111239907855,
    "lng": 126.75540699735407,
    "roadAddress": "경기도 파주시 한빛로 20(야당동, 롯데캐슬 파크타운 Ⅱ)",
    "address": "경기도 파주시 야당동 1015 롯데캐슬 파크타운 Ⅱ",
    "businessStatus": "영업",
    "hasTrashBag": true,
    "hasSpecialBag": true,
    "hasLargeWasteSticker": true,
    "adminVerified": false,
    "dataReferenceDate": "2026-03-24"
  },
  {
    "name": "지에스25 야당유미어스점",
    "lat": 37.70825403425017,
    "lng": 126.75944367087124,
    "roadAddress": "경기도 파주시 경의로 1016(야당동)",
    "address": "경기도 파주시 야당동 1048",
    "businessStatus": "영업",
    "hasTrashBag": true,
    "hasSpecialBag": false,
    "hasLargeWasteSticker": true,
    "adminVerified": false,
    "dataReferenceDate": "2026-03-24"
  },
  {
    "name": "하우개마트(우정투어)",
    "lat": 37.7110009556931,
    "lng": 126.76626573101883,
    "roadAddress": "경기도 파주시 번뛰기길 3(야당동)",
    "address": "경기도 파주시 야당동 183-1",
    "businessStatus": "영업",
    "hasTrashBag": true,
    "hasSpecialBag": true,
    "hasLargeWasteSticker": true,
    "adminVerified": false,
    "dataReferenceDate": "2026-03-24"
  },
  {
    "name": "이마트24 운정유미어스점",
    "lat": 37.707829052527096,
    "lng": 126.759516130552,
    "roadAddress": "경기도 파주시 경의로 1012(야당동)",
    "address": "경기도 파주시 야당동 1048-1",
    "businessStatus": "영업",
    "hasTrashBag": true,
    "hasSpecialBag": true,
    "hasLargeWasteSticker": true,
    "adminVerified": false,
    "dataReferenceDate": "2026-03-27"
  },
  {
    "name": "이마트24 삼융시네마점",
    "lat": 37.71315706556201,
    "lng": 126.75989197992351,
    "roadAddress": "경기도 파주시 경의로 1074(야당동, 삼융시네마)",
    "address": "경기도 파주시 야당동 1066 삼융시네마",
    "businessStatus": "영업",
    "hasTrashBag": true,
    "hasSpecialBag": false,
    "hasLargeWasteSticker": true,
    "adminVerified": false,
    "dataReferenceDate": "2026-03-24"
  },
  {
    "name": "지에스25 야당금강점",
    "lat": 37.710658628086165,
    "lng": 126.75935064177011,
    "roadAddress": "경기도 파주시 경의로 1046(야당동)",
    "address": "경기도 파주시 야당동 1056-3",
    "businessStatus": "영업",
    "hasTrashBag": true,
    "hasSpecialBag": true,
    "hasLargeWasteSticker": true,
    "adminVerified": false,
    "dataReferenceDate": "2026-03-24"
  },
  {
    "name": "지에스(GS)25 야당뉴스타점",
    "lat": 37.707825864047905,
    "lng": 126.7600760429023,
    "roadAddress": "경기도 파주시 경의로1004번길 17(야당동, 디베뉴스타), 1",
    "address": "경기도 파주시 야당동 1044-2 디베뉴스타, 1",
    "businessStatus": "영업",
    "hasTrashBag": true,
    "hasSpecialBag": false,
    "hasLargeWasteSticker": true,
    "adminVerified": false,
    "dataReferenceDate": "2026-03-24"
  },
  {
    "name": "씨유 운정파크뷰점",
    "lat": 37.71638324512064,
    "lng": 126.76204525609259,
    "roadAddress": "경기도 파주시 소리천로 39(야당동)",
    "address": "경기도 파주시 야당동 1079-1",
    "businessStatus": "영업",
    "hasTrashBag": true,
    "hasSpecialBag": true,
    "hasLargeWasteSticker": true,
    "adminVerified": false,
    "dataReferenceDate": "2026-03-24"
  },
  {
    "name": "지에스25 야당에이스점",
    "lat": 37.714016889077044,
    "lng": 126.76389734404714,
    "roadAddress": "경기도 파주시 송학1길 115(야당동, 라비앙)",
    "address": "경기도 파주시 야당동 193-2 라비앙",
    "businessStatus": "영업",
    "hasTrashBag": true,
    "hasSpecialBag": false,
    "hasLargeWasteSticker": true,
    "adminVerified": false,
    "dataReferenceDate": "2026-03-24"
  },
  {
    "name": "지에스25 운정홈플러스점",
    "lat": 37.72870928772539,
    "lng": 126.73638636477925,
    "roadAddress": "경기도 파주시 청암로17번길 33(목동동)",
    "address": "경기도 파주시 목동동 933",
    "businessStatus": "영업",
    "hasTrashBag": true,
    "hasSpecialBag": true,
    "hasLargeWasteSticker": true,
    "adminVerified": false,
    "dataReferenceDate": "2026-03-24"
  },
  {
    "name": "GS25 파주현대점",
    "lat": 37.72525215739619,
    "lng": 126.75050685205467,
    "roadAddress": "경기도 파주시 미래로 535(목동동, 해솔마을3단지 운정현대아파트), 상가1층",
    "address": "경기도 파주시 목동동 2-110 해솔마을3단지 운정현대아파트, 상가1층",
    "businessStatus": "영업",
    "hasTrashBag": true,
    "hasSpecialBag": false,
    "hasLargeWasteSticker": true,
    "adminVerified": false,
    "dataReferenceDate": "2026-03-24"
  },
  {
    "name": "지에스25 파주목동점",
    "lat": 37.71990962649022,
    "lng": 126.73780214614932,
    "roadAddress": "경기도 파주시 와석순환로252번길 13(목동동), 1층",
    "address": "경기도 파주시 목동동 1099-3, 1층",
    "businessStatus": "영업",
    "hasTrashBag": true,
    "hasSpecialBag": false,
    "hasLargeWasteSticker": true,
    "adminVerified": false,
    "dataReferenceDate": "2026-03-24"
  },
  {
    "name": "GS25 운정산내중앙점",
    "lat": 37.73043469171665,
    "lng": 126.73871378397686,
    "roadAddress": "경기도 파주시 청암로 14(목동동, 산내마을8단지), 상가 106,107동",
    "address": "경기도 파주시 목동동 114-62 산내마을8단지, 상가 106,107동",
    "businessStatus": "영업",
    "hasTrashBag": true,
    "hasSpecialBag": true,
    "hasLargeWasteSticker": true,
    "adminVerified": false,
    "dataReferenceDate": "2026-03-24"
  },
  {
    "name": "지에스25 운정센트럴점",
    "lat": 37.73057791309809,
    "lng": 126.73092806899021,
    "roadAddress": "경기도 파주시 교하로 50(목동동, 산내마을2단지센트럴리움), 단지내 상가 104호~106호",
    "address": "경기도 파주시 목동동 907 산내마을2단지센트럴리움, 단지내 상가 104호~106호",
    "businessStatus": "영업",
    "hasTrashBag": true,
    "hasSpecialBag": true,
    "hasLargeWasteSticker": true,
    "adminVerified": false,
    "dataReferenceDate": "2026-03-24"
  },
  {
    "name": "씨유 운정힐스테이트점",
    "lat": 37.723992,
    "lng": 126.7338637,
    "roadAddress": "경기도 파주시 목동동 1149 힐스테이트 운정",
    "address": "경기도 파주시 목동동 1149 힐스테이트 운정",
    "businessStatus": "영업",
    "hasTrashBag": true,
    "hasSpecialBag": true,
    "hasLargeWasteSticker": true,
    "adminVerified": false,
    "dataReferenceDate": "2026-03-24"
  },
  {
    "name": "GS수퍼마켓 운정힐스테이트점",
    "lat": 37.72567311003529,
    "lng": 126.73449727592592,
    "roadAddress": "경기도 파주시 교하로 100(목동동, 힐스테이트 운정),  939동 102~107호",
    "address": "경기도 파주시 목동동 1149 힐스테이트 운정,  939동 102~107호",
    "businessStatus": "영업",
    "hasTrashBag": true,
    "hasSpecialBag": true,
    "hasLargeWasteSticker": true,
    "adminVerified": false,
    "dataReferenceDate": "2026-03-24"
  },
  {
    "name": "씨유 파주운정해솔점",
    "lat": 37.73101947967237,
    "lng": 126.75063670693359,
    "roadAddress": "경기도 파주시 미래로 603(목동동, 휴먼시아 해솔마을 아파트), 상가동 101호",
    "address": "경기도 파주시 목동동 640 휴먼시아 해솔마을 아파트, 상가동 101호",
    "businessStatus": "영업",
    "hasTrashBag": true,
    "hasSpecialBag": true,
    "hasLargeWasteSticker": true,
    "adminVerified": false,
    "dataReferenceDate": "2026-03-24"
  },
  {
    "name": "지에스25 운정라온점",
    "lat": 37.72993670887277,
    "lng": 126.74708057125241,
    "roadAddress": "경기도 파주시 가재울로94번길 23(목동동), 1층",
    "address": "경기도 파주시 목동동 778, 1층",
    "businessStatus": "영업",
    "hasTrashBag": true,
    "hasSpecialBag": true,
    "hasLargeWasteSticker": true,
    "adminVerified": false,
    "dataReferenceDate": "2026-03-24"
  },
  {
    "name": "씨유 운정산내중학교점",
    "lat": 37.722867069372555,
    "lng": 126.73912423026557,
    "roadAddress": "경기도 파주시 산내로7번길 25-8(목동동)",
    "address": "경기도 파주시 목동동 1056-2",
    "businessStatus": "영업",
    "hasTrashBag": true,
    "hasSpecialBag": true,
    "hasLargeWasteSticker": true,
    "adminVerified": false,
    "dataReferenceDate": "2026-03-24"
  },
  {
    "name": "주식회사 대성리테일",
    "lat": 37.71031953713967,
    "lng": 126.76377250063582,
    "roadAddress": "경기도 파주시 하우고개길 81(야당동)",
    "address": "경기도 파주시 야당동 178-23",
    "businessStatus": "영업",
    "hasTrashBag": true,
    "hasSpecialBag": true,
    "hasLargeWasteSticker": true,
    "adminVerified": false,
    "dataReferenceDate": "2026-03-24"
  },
  {
    "name": "씨유 운정더타운점",
    "lat": 37.72055704592332,
    "lng": 126.76757587957569,
    "roadAddress": "경기도 파주시 하우3길 96(야당동)",
    "address": "경기도 파주시 야당동 45-77",
    "businessStatus": "영업",
    "hasTrashBag": true,
    "hasSpecialBag": true,
    "hasLargeWasteSticker": true,
    "adminVerified": false,
    "dataReferenceDate": "2026-03-24"
  },
  {
    "name": "운정홈마트",
    "lat": 37.72461327589814,
    "lng": 126.77166078883563,
    "roadAddress": "경기도 파주시 운정로 41(야당동, (주)길흥산업)",
    "address": "경기도 파주시 야당동 24-6 (주)길흥산업",
    "businessStatus": "영업",
    "hasTrashBag": true,
    "hasSpecialBag": true,
    "hasLargeWasteSticker": true,
    "adminVerified": false,
    "dataReferenceDate": "2026-03-24"
  },
  {
    "name": "주식회사 대진식자재마트",
    "lat": 37.71852487212116,
    "lng": 126.7383081996337,
    "roadAddress": "경기도 파주시 심학산로 423(목동동)",
    "address": "경기도 파주시 목동동 1133",
    "businessStatus": "영업",
    "hasTrashBag": true,
    "hasSpecialBag": false,
    "hasLargeWasteSticker": false,
    "adminVerified": false,
    "dataReferenceDate": "2026-03-24"
  },
  {
    "name": "두배로마트 대원점",
    "lat": 37.72814141911895,
    "lng": 126.81286616303649,
    "roadAddress": "경기도 파주시 조리읍 대원로 83(조리읍)",
    "address": "경기도 파주시 조리읍 대원리 275-1",
    "businessStatus": "영업",
    "hasTrashBag": true,
    "hasSpecialBag": true,
    "hasLargeWasteSticker": true,
    "adminVerified": false,
    "dataReferenceDate": "2026-03-24"
  },
  {
    "name": "지에스25  산내파크드림점",
    "lat": 37.732861707202666,
    "lng": 126.73558457943136,
    "roadAddress": "경기도 파주시 청암로48번길 8-4(목동동)",
    "address": "경기도 파주시 목동동 878",
    "businessStatus": "영업",
    "hasTrashBag": true,
    "hasSpecialBag": true,
    "hasLargeWasteSticker": true,
    "adminVerified": false,
    "dataReferenceDate": "2026-03-24"
  },
  {
    "name": "지에스더프레쉬 운정한빛마을점",
    "lat": 37.71087814722906,
    "lng": 126.75106725961967,
    "roadAddress": "경기도 파주시 와석순환로 76(야당동)",
    "address": "경기도 파주시 야당동 1006-4",
    "businessStatus": "영업",
    "hasTrashBag": true,
    "hasSpecialBag": true,
    "hasLargeWasteSticker": true,
    "adminVerified": false,
    "dataReferenceDate": "2026-03-24"
  },
  {
    "name": "지에스25 뉴파주야당점",
    "lat": 37.70587186432739,
    "lng": 126.7645458710561,
    "roadAddress": "경기도 파주시 송학길 29-5(야당동, 해가온)",
    "address": "경기도 파주시 야당동 149-1 해가온",
    "businessStatus": "영업",
    "hasTrashBag": true,
    "hasSpecialBag": true,
    "hasLargeWasteSticker": true,
    "adminVerified": false,
    "dataReferenceDate": "2026-03-24"
  },
  {
    "name": "야당마트(주) 케이글로벌 유통",
    "lat": 37.71255088334748,
    "lng": 126.76245266954028,
    "roadAddress": "경기도 파주시 송학1길 63(야당동)",
    "address": "경기도 파주시 야당동 421-39",
    "businessStatus": "영업",
    "hasTrashBag": true,
    "hasSpecialBag": true,
    "hasLargeWasteSticker": true,
    "adminVerified": false,
    "dataReferenceDate": "2026-03-26"
  },
  {
    "name": "씨유 운정시그니처점",
    "lat": 37.73346232248491,
    "lng": 126.73620592693595,
    "roadAddress": "경기도 파주시 청암로 50(목동동, 운정 화성파크드림 시그니처)",
    "address": "경기도 파주시 목동동 898 운정 화성파크드림 시그니처",
    "businessStatus": "영업",
    "hasTrashBag": true,
    "hasSpecialBag": true,
    "hasLargeWasteSticker": true,
    "adminVerified": false,
    "dataReferenceDate": "2026-03-24"
  },
  {
    "name": "K슈퍼",
    "lat": 37.75472123472741,
    "lng": 126.77060536632769,
    "roadAddress": "경기도 파주시 황골로 18(금촌동, 건일장미아파트)",
    "address": "경기도 파주시 금촌동 228-1 건일장미아파트",
    "businessStatus": "영업",
    "hasTrashBag": true,
    "hasSpecialBag": true,
    "hasLargeWasteSticker": true,
    "adminVerified": false,
    "dataReferenceDate": "2026-03-23"
  },
  {
    "name": "빅마트",
    "lat": 37.76224327637415,
    "lng": 126.77317115191796,
    "roadAddress": "경기도 파주시 금정로 84(금촌동, 금촌시장)",
    "address": "경기도 파주시 금촌동 64-60 금촌시장",
    "businessStatus": "영업",
    "hasTrashBag": true,
    "hasSpecialBag": false,
    "hasLargeWasteSticker": true,
    "adminVerified": false,
    "dataReferenceDate": "2026-03-23"
  },
  {
    "name": "씨유 금촌유앤아이점",
    "lat": 37.769396102776476,
    "lng": 126.77055986908213,
    "roadAddress": "경기도 파주시 금신초교길 72(금촌동, 한일 유앤아이)",
    "address": "경기도 파주시 금촌동 1014 한일 유앤아이",
    "businessStatus": "영업",
    "hasTrashBag": true,
    "hasSpecialBag": true,
    "hasLargeWasteSticker": true,
    "adminVerified": false,
    "dataReferenceDate": "2026-03-24"
  },
  {
    "name": "지에스(GS) 운정월드점",
    "lat": 37.72499901752799,
    "lng": 126.76150946659197,
    "roadAddress": "경기도 파주시 경의로 1204(와동동)",
    "address": "경기도 파주시 와동동 1423-2",
    "businessStatus": "영업",
    "hasTrashBag": true,
    "hasSpecialBag": true,
    "hasLargeWasteSticker": true,
    "adminVerified": false,
    "dataReferenceDate": "2026-03-23"
  },
  {
    "name": "지에스25 해오름5단지점",
    "lat": 37.742839718645854,
    "lng": 126.73163995762683,
    "roadAddress": "경기도 파주시 범벅들길 123(다율동)",
    "address": "경기도 파주시 다율동 1023",
    "businessStatus": "영업",
    "hasTrashBag": true,
    "hasSpecialBag": false,
    "hasLargeWasteSticker": true,
    "adminVerified": false,
    "dataReferenceDate": "2026-03-23"
  },
  {
    "name": "이마트24 교하데시앙점",
    "lat": 37.7208318,
    "lng": 126.7216457,
    "roadAddress": "경기도 파주시 동패동 1708 책향기마을 파주교하 상록데시앙",
    "address": "경기도 파주시 동패동 1708 책향기마을 파주교하 상록데시앙",
    "businessStatus": "영업",
    "hasTrashBag": true,
    "hasSpecialBag": true,
    "hasLargeWasteSticker": true,
    "adminVerified": false,
    "dataReferenceDate": "2026-03-26"
  },
  {
    "name": "지에스25 금촌중앙점(4단지내)",
    "lat": 37.75289683746654,
    "lng": 126.77352095415124,
    "roadAddress": "경기도 파주시 후곡로 50(금촌동, 후곡마을뜨란채)",
    "address": "경기도 파주시 금촌동 992 후곡마을뜨란채",
    "businessStatus": "영업",
    "hasTrashBag": true,
    "hasSpecialBag": true,
    "hasLargeWasteSticker": true,
    "adminVerified": false,
    "dataReferenceDate": "2026-03-24"
  },
  {
    "name": "케이에스유통",
    "lat": 37.71397132288416,
    "lng": 126.7483201279571,
    "roadAddress": "경기도 파주시 미래로408번길 30(야당동)",
    "address": "경기도 파주시 야당동 1000-3",
    "businessStatus": "영업",
    "hasTrashBag": true,
    "hasSpecialBag": true,
    "hasLargeWasteSticker": true,
    "adminVerified": false,
    "dataReferenceDate": "2026-03-26"
  },
  {
    "name": "gs25 파주이레점",
    "lat": 37.77153880452905,
    "lng": 126.70466748955909,
    "roadAddress": "경기도 파주시 탄현면 약산로 77(탄현면)",
    "address": "경기도 파주시 탄현면 법흥리 1574-9",
    "businessStatus": "영업",
    "hasTrashBag": true,
    "hasSpecialBag": false,
    "hasLargeWasteSticker": true,
    "adminVerified": false,
    "dataReferenceDate": "2026-03-27"
  },
  {
    "name": "동북쇼핑 문산점",
    "lat": 37.8644184946753,
    "lng": 126.78221859414074,
    "roadAddress": "경기도 파주시 문산읍 방촌로 1695(문산읍)",
    "address": "경기도 파주시 문산읍 당동리 902-1",
    "businessStatus": "영업",
    "hasTrashBag": true,
    "hasSpecialBag": true,
    "hasLargeWasteSticker": true,
    "adminVerified": false,
    "dataReferenceDate": "2026-03-25"
  },
  {
    "name": "지에스더프레시 운정물향기점",
    "lat": 37.72601326321371,
    "lng": 126.72670928038329,
    "roadAddress": "경기도 파주시 물향기1로 194(동패동, 해링턴플레이스 GTX운정 물향기마을3단지)",
    "address": "경기도 파주시 동패동 2173-561 해링턴플레이스 GTX운정 물향기마을3단지",
    "businessStatus": "영업",
    "hasTrashBag": true,
    "hasSpecialBag": false,
    "hasLargeWasteSticker": true,
    "adminVerified": false,
    "dataReferenceDate": "2026-03-24"
  },
  {
    "name": "씨유 파주대원로점",
    "lat": 37.73097896991048,
    "lng": 126.80973527231866,
    "roadAddress": "경기도 파주시 조리읍 대원로 127(조리읍, 애니카랜드)",
    "address": "경기도 파주시 조리읍 대원리 324-1 애니카랜드",
    "businessStatus": "영업",
    "hasTrashBag": true,
    "hasSpecialBag": true,
    "hasLargeWasteSticker": true,
    "adminVerified": false,
    "dataReferenceDate": "2026-03-24"
  },
  {
    "name": "한국유통마트",
    "lat": 37.70289994313708,
    "lng": 126.75816899599117,
    "roadAddress": "경기도 고양시 일산서구 경의로 957(덕이동)",
    "address": "경기도 고양시 일산서구 덕이동 322-2",
    "businessStatus": "영업",
    "hasTrashBag": true,
    "hasSpecialBag": true,
    "hasLargeWasteSticker": true,
    "adminVerified": false,
    "dataReferenceDate": "2026-03-24"
  },
  {
    "name": "GS25 운정행복점",
    "lat": 37.725335,
    "lng": 126.7699775,
    "roadAddress": "상지석동 991-5",
    "address": "상지석동 991-5",
    "businessStatus": "영업",
    "hasTrashBag": true,
    "hasSpecialBag": true,
    "hasLargeWasteSticker": true,
    "adminVerified": false,
    "dataReferenceDate": "2026-03-24"
  },
  {
    "name": "세븐일레븐 야당중심점",
    "lat": 37.71898132731096,
    "lng": 126.76990667858601,
    "roadAddress": "경기도 파주시 운정안길 2(야당동)",
    "address": "경기도 파주시 야당동 57-6",
    "businessStatus": "영업",
    "hasTrashBag": true,
    "hasSpecialBag": true,
    "hasLargeWasteSticker": true,
    "adminVerified": false,
    "dataReferenceDate": "2026-03-24"
  },
  {
    "name": "축복큰대운집",
    "lat": 37.76446224487065,
    "lng": 126.77456416896204,
    "roadAddress": "경기도 파주시 중앙로 324(금촌동, 대보고속관광)",
    "address": "경기도 파주시 금촌동 44-7 대보고속관광",
    "businessStatus": "영업",
    "hasTrashBag": true,
    "hasSpecialBag": true,
    "hasLargeWasteSticker": true,
    "adminVerified": false,
    "dataReferenceDate": "2026-03-23"
  },
  {
    "name": "중국전통식품",
    "lat": 37.76276002852907,
    "lng": 126.77350536386791,
    "roadAddress": "경기도 파주시 금정24길 15(금촌동)",
    "address": "경기도 파주시 금촌동 320-3",
    "businessStatus": "영업",
    "hasTrashBag": true,
    "hasSpecialBag": false,
    "hasLargeWasteSticker": false,
    "adminVerified": false,
    "dataReferenceDate": "2026-03-16"
  },
  {
    "name": "코사마트 생활마트점",
    "lat": 37.849162109331715,
    "lng": 126.87502014863892,
    "roadAddress": "경기도 파주시 법원읍 사임당로 847(법원읍)",
    "address": "경기도 파주시 법원읍 대능리 88-41",
    "businessStatus": "영업",
    "hasTrashBag": true,
    "hasSpecialBag": true,
    "hasLargeWasteSticker": true,
    "adminVerified": false,
    "dataReferenceDate": "2026-03-27"
  },
  {
    "name": "씨유 운정풍경채점",
    "lat": 37.741455088397046,
    "lng": 126.7581362555957,
    "roadAddress": "경기도 파주시 가람로 113(와동동, 별하람마을1단지 제일풍경채 그랑퍼스트)",
    "address": "경기도 파주시 와동동 1664-417 별하람마을1단지 제일풍경채 그랑퍼스트",
    "businessStatus": "영업",
    "hasTrashBag": true,
    "hasSpecialBag": false,
    "hasLargeWasteSticker": true,
    "adminVerified": false,
    "dataReferenceDate": "2026-03-26"
  },
  {
    "name": "지에스25 운정휴아림점",
    "lat": 37.735046617764816,
    "lng": 126.72968559093302,
    "roadAddress": "경기도 파주시 해올로 20(다율동, 해오름마을 12단지 휴아림), 근린생활시설동 102, 103, 104호",
    "address": "경기도 파주시 다율동 1039 해오름마을 12단지 휴아림, 근린생활시설동 102, 103, 104호",
    "businessStatus": "영업",
    "hasTrashBag": true,
    "hasSpecialBag": true,
    "hasLargeWasteSticker": true,
    "adminVerified": false,
    "dataReferenceDate": "2026-03-26"
  },
  {
    "name": "씨유 운정한빛점",
    "lat": 37.71435727459876,
    "lng": 126.74888666087122,
    "roadAddress": "경기도 파주시 미래로408번길 41(야당동, 한빛마을 1단지 한라비발디 센트럴파크)",
    "address": "경기도 파주시 야당동 981 한빛마을 1단지 한라비발디 센트럴파크",
    "businessStatus": "영업",
    "hasTrashBag": true,
    "hasSpecialBag": false,
    "hasLargeWasteSticker": true,
    "adminVerified": false,
    "dataReferenceDate": "2026-03-26"
  },
  {
    "name": "씨유 파주영태본점",
    "lat": 37.7763901462953,
    "lng": 126.78973793975582,
    "roadAddress": "경기도 파주시 월롱면 황소바위길 10(월롱면)",
    "address": "경기도 파주시 월롱면 영태리 587",
    "businessStatus": "영업",
    "hasTrashBag": true,
    "hasSpecialBag": false,
    "hasLargeWasteSticker": true,
    "adminVerified": false,
    "dataReferenceDate": "2026-03-11"
  },
  {
    "name": "이마트24 파주도내점",
    "lat": 37.78847719590686,
    "lng": 126.81983201533694,
    "roadAddress": "경기도 파주시 월롱면 홀작로 26(월롱면)",
    "address": "경기도 파주시 월롱면 도내리 254",
    "businessStatus": "영업",
    "hasTrashBag": true,
    "hasSpecialBag": true,
    "hasLargeWasteSticker": true,
    "adminVerified": false,
    "dataReferenceDate": "2026-03-25"
  },
  {
    "name": "월드마트(1차후문)",
    "lat": 37.72704048464042,
    "lng": 126.74299778148442,
    "roadAddress": "경기도 파주시 가온로 27(목동동, 교하1차월드메르디앙상가동)",
    "address": "경기도 파주시 목동동 2-127 교하1차월드메르디앙상가동",
    "businessStatus": "영업",
    "hasTrashBag": true,
    "hasSpecialBag": true,
    "hasLargeWasteSticker": true,
    "adminVerified": false,
    "dataReferenceDate": "2026-03-24"
  },
  {
    "name": "씨유 파주운정로점",
    "lat": 37.72283572023664,
    "lng": 126.77367030123146,
    "roadAddress": "경기도 파주시 운정로 68(상지석동)",
    "address": "경기도 파주시 상지석동 601-2",
    "businessStatus": "영업",
    "hasTrashBag": true,
    "hasSpecialBag": false,
    "hasLargeWasteSticker": true,
    "adminVerified": false,
    "dataReferenceDate": "2026-03-24"
  },
  {
    "name": "예스마트(역전)",
    "lat": 37.76428315738135,
    "lng": 126.77476277939981,
    "roadAddress": "경기도 파주시 중앙로 320-2(금촌동)",
    "address": "경기도 파주시 금촌동 44-13",
    "businessStatus": "영업",
    "hasTrashBag": true,
    "hasSpecialBag": true,
    "hasLargeWasteSticker": true,
    "adminVerified": false,
    "dataReferenceDate": "2026-03-23"
  },
  {
    "name": "씨유 파주교육청점",
    "lat": 37.75668576511057,
    "lng": 126.77734858609448,
    "roadAddress": "경기도 파주시 금정4길 20(금촌동, 광촌빌딩)",
    "address": "경기도 파주시 금촌동 786-1 광촌빌딩",
    "businessStatus": "영업",
    "hasTrashBag": true,
    "hasSpecialBag": false,
    "hasLargeWasteSticker": true,
    "adminVerified": false,
    "dataReferenceDate": "2026-03-23"
  },
  {
    "name": "지에스(GS)25 장안미소점",
    "lat": 37.761151270992514,
    "lng": 126.77777037726439,
    "roadAddress": "경기도 파주시 마무리길 28(아동동, 초원종합슈퍼마켓)",
    "address": "경기도 파주시 아동동 339-1 초원종합슈퍼마켓",
    "businessStatus": "영업",
    "hasTrashBag": true,
    "hasSpecialBag": true,
    "hasLargeWasteSticker": true,
    "adminVerified": false,
    "dataReferenceDate": "2026-03-23"
  },
  {
    "name": "지에스25 검산점",
    "lat": 37.77286609321045,
    "lng": 126.74427042554083,
    "roadAddress": "경기도 파주시 평화로 346(검산동)",
    "address": "경기도 파주시 검산동 279-1",
    "businessStatus": "영업",
    "hasTrashBag": true,
    "hasSpecialBag": true,
    "hasLargeWasteSticker": true,
    "adminVerified": false,
    "dataReferenceDate": "2026-03-09"
  },
  {
    "name": "세븐일레븐 파주장곡리점",
    "lat": 37.73439228801827,
    "lng": 126.84296560957212,
    "roadAddress": "경기도 파주시 조리읍 명봉산로 70(조리읍, 장곡2리마을회관)",
    "address": "경기도 파주시 조리읍 장곡리 701 장곡2리마을회관",
    "businessStatus": "영업",
    "hasTrashBag": true,
    "hasSpecialBag": false,
    "hasLargeWasteSticker": true,
    "adminVerified": false,
    "dataReferenceDate": "2026-03-09"
  },
  {
    "name": "씨유 파주주공점",
    "lat": 37.75654238800537,
    "lng": 126.7711087937202,
    "roadAddress": "경기도 파주시 한마음1길 26(금촌동, 네오프라자)",
    "address": "경기도 파주시 금촌동 251-10 네오프라자",
    "businessStatus": "영업",
    "hasTrashBag": true,
    "hasSpecialBag": true,
    "hasLargeWasteSticker": true,
    "adminVerified": false,
    "dataReferenceDate": "2026-03-23"
  },
  {
    "name": "씨유 파주송촌점",
    "lat": 37.73614072589095,
    "lng": 126.82500661388224,
    "roadAddress": "경기도 파주시 조리읍 통일로 153(조리읍, 송촌토파즈아파트)",
    "address": "경기도 파주시 조리읍 봉일천리 13-15 송촌토파즈아파트",
    "businessStatus": "영업",
    "hasTrashBag": true,
    "hasSpecialBag": true,
    "hasLargeWasteSticker": true,
    "adminVerified": false,
    "dataReferenceDate": "2026-03-24"
  },
  {
    "name": "이마트24 헤이리마을점",
    "lat": 37.78658532778997,
    "lng": 126.70123032954051,
    "roadAddress": "경기도 파주시 탄현면 헤이리마을길 48-96(탄현면)",
    "address": "경기도 파주시 탄현면 법흥리 1652-458",
    "businessStatus": "영업",
    "hasTrashBag": true,
    "hasSpecialBag": true,
    "hasLargeWasteSticker": true,
    "adminVerified": false,
    "dataReferenceDate": "2026-03-27"
  },
  {
    "name": "이마트24 파주스머프리빙점",
    "lat": 37.94192605522993,
    "lng": 126.87771867050526,
    "roadAddress": "경기도 파주시 파평면 청송로 629(파평면)",
    "address": "경기도 파주시 파평면 덕천리 131-1",
    "businessStatus": "영업",
    "hasTrashBag": true,
    "hasSpecialBag": false,
    "hasLargeWasteSticker": true,
    "adminVerified": false,
    "dataReferenceDate": "2026-03-27"
  },
  {
    "name": "세븐일레븐 파주가람마을점",
    "lat": 37.733693167996925,
    "lng": 126.75229312541373,
    "roadAddress": "경기도 파주시 가람로 20(와동동, 가람마을1단지벽산한라 아파트), 111-112호",
    "address": "경기도 파주시 와동동 1308 가람마을1단지벽산한라 아파트, 111-112호",
    "businessStatus": "영업",
    "hasTrashBag": true,
    "hasSpecialBag": true,
    "hasLargeWasteSticker": true,
    "adminVerified": false,
    "dataReferenceDate": "2026-03-26"
  },
  {
    "name": "이마트24 운정파밀리에점",
    "lat": 37.71452859517652,
    "lng": 126.71419869976344,
    "roadAddress": "경기도 파주시 숲속노을로 150(동패동, 초롱꽃마을 파밀리에 7단지)",
    "address": "경기도 파주시 동패동 2075 초롱꽃마을 파밀리에 7단지",
    "businessStatus": "영업",
    "hasTrashBag": true,
    "hasSpecialBag": false,
    "hasLargeWasteSticker": true,
    "adminVerified": false,
    "dataReferenceDate": "2026-03-26"
  },
  {
    "name": "씨유 운정가람8단지점",
    "lat": 37.728590893715534,
    "lng": 126.75836331157757,
    "roadAddress": "경기도 파주시 금바위로 47(와동동, 가람마을8단지 동문굿모닝힐)",
    "address": "경기도 파주시 와동동 205 가람마을8단지 동문굿모닝힐",
    "businessStatus": "영업",
    "hasTrashBag": true,
    "hasSpecialBag": true,
    "hasLargeWasteSticker": true,
    "adminVerified": false,
    "dataReferenceDate": "2026-03-26"
  },
  {
    "name": "현대25시",
    "lat": 37.7435324724956,
    "lng": 126.80784662654185,
    "roadAddress": "경기도 파주시 조리읍 봉천로 33-1(조리읍, 현대25시편의점)",
    "address": "경기도 파주시 조리읍 봉일천리 168-4 현대25시편의점",
    "businessStatus": "영업",
    "hasTrashBag": true,
    "hasSpecialBag": false,
    "hasLargeWasteSticker": false,
    "adminVerified": false,
    "dataReferenceDate": "2026-03-04"
  },
  {
    "name": "한국유통",
    "lat": 37.74644103615645,
    "lng": 126.81019497062702,
    "roadAddress": "경기도 파주시 조리읍 두루봉로 25-5(조리읍)",
    "address": "경기도 파주시 조리읍 봉일천리 262-11",
    "businessStatus": "영업",
    "hasTrashBag": true,
    "hasSpecialBag": true,
    "hasLargeWasteSticker": true,
    "adminVerified": false,
    "dataReferenceDate": "2026-03-23"
  },
  {
    "name": "세븐일레븐 상지석갤러리점",
    "lat": 37.7237353960479,
    "lng": 126.79057586901983,
    "roadAddress": "경기도 파주시 고봉로 755-30(상지석동)",
    "address": "경기도 파주시 상지석동 133-19",
    "businessStatus": "영업",
    "hasTrashBag": true,
    "hasSpecialBag": true,
    "hasLargeWasteSticker": true,
    "adminVerified": false,
    "dataReferenceDate": "2026-03-17"
  },
  {
    "name": "선경문구",
    "lat": 37.66103727212194,
    "lng": 126.80415383581989,
    "roadAddress": "경기도 고양시 일산동구 백마로502번길 39(풍동)",
    "address": "경기도 고양시 일산동구 풍동 998",
    "businessStatus": "영업",
    "hasTrashBag": true,
    "hasSpecialBag": false,
    "hasLargeWasteSticker": true,
    "adminVerified": false,
    "dataReferenceDate": "2026-03-12"
  },
  {
    "name": "씨유 운정희망점",
    "lat": 37.70864822951423,
    "lng": 126.72202252037758,
    "roadAddress": "경기도 파주시 양지로 112(동패동, 운정 하우스디 초롱꽃마을11단지)",
    "address": "경기도 파주시 동패동 2127 운정 하우스디 초롱꽃마을11단지",
    "businessStatus": "영업",
    "hasTrashBag": true,
    "hasSpecialBag": true,
    "hasLargeWasteSticker": true,
    "adminVerified": false,
    "dataReferenceDate": "2026-03-26"
  },
  {
    "name": "삼천리슈퍼",
    "lat": 37.77799578823169,
    "lng": 126.78924218012794,
    "roadAddress": "경기도 파주시 월롱면 한태말길 6(월롱면)",
    "address": "경기도 파주시 월롱면 영태리 581-16",
    "businessStatus": "영업",
    "hasTrashBag": true,
    "hasSpecialBag": true,
    "hasLargeWasteSticker": true,
    "adminVerified": false,
    "dataReferenceDate": "2026-03-25"
  },
  {
    "name": "건아할인마트",
    "lat": 37.82530067683207,
    "lng": 126.73672279679657,
    "roadAddress": "경기도 파주시 탄현면 방촌로 1048(탄현면)",
    "address": "경기도 파주시 탄현면 금승리 392-3",
    "businessStatus": "영업",
    "hasTrashBag": true,
    "hasSpecialBag": true,
    "hasLargeWasteSticker": true,
    "adminVerified": false,
    "dataReferenceDate": "2026-03-25"
  },
  {
    "name": "알뜰마트",
    "lat": 37.76021471284328,
    "lng": 126.76877878649121,
    "roadAddress": "경기도 파주시 새꽃로 116(금촌동)",
    "address": "경기도 파주시 금촌동 932-29",
    "businessStatus": "영업",
    "hasTrashBag": true,
    "hasSpecialBag": false,
    "hasLargeWasteSticker": false,
    "adminVerified": false,
    "dataReferenceDate": "2026-03-23"
  },
  {
    "name": "씨유 운정해솔6단지점",
    "lat": 37.72362254791204,
    "lng": 126.74762034510515,
    "roadAddress": "경기도 파주시 와석순환로 380(목동동, 해솔마을6단지), 616동 105,106호",
    "address": "경기도 파주시 목동동 690 해솔마을6단지, 616동 105,106호",
    "businessStatus": "영업",
    "hasTrashBag": true,
    "hasSpecialBag": false,
    "hasLargeWasteSticker": true,
    "adminVerified": false,
    "dataReferenceDate": "2026-03-24"
  },
  {
    "name": "GS25 운정호수공원점 (캐슬)",
    "lat": 37.7196821035129,
    "lng": 126.75109212022717,
    "roadAddress": "경기도 파주시 가온로 170(와동동)",
    "address": "경기도 파주시 와동동 1399",
    "businessStatus": "영업",
    "hasTrashBag": true,
    "hasSpecialBag": true,
    "hasLargeWasteSticker": true,
    "adminVerified": false,
    "dataReferenceDate": "2026-03-26"
  },
  {
    "name": "씨유 동패스쿨점",
    "lat": 37.70989168858581,
    "lng": 126.73484163032442,
    "roadAddress": "경기도 파주시 동패로7번길 70(동패동)",
    "address": "경기도 파주시 동패동 1981",
    "businessStatus": "영업",
    "hasTrashBag": true,
    "hasSpecialBag": true,
    "hasLargeWasteSticker": true,
    "adminVerified": false,
    "dataReferenceDate": "2026-03-26"
  },
  {
    "name": "두배로마트 문발점",
    "lat": 37.72595843834173,
    "lng": 126.69996692064382,
    "roadAddress": "경기도 파주시 지목로 78(문발동)",
    "address": "경기도 파주시 문발동 81-11",
    "businessStatus": "영업",
    "hasTrashBag": true,
    "hasSpecialBag": true,
    "hasLargeWasteSticker": true,
    "adminVerified": false,
    "dataReferenceDate": "2026-03-26"
  },
  {
    "name": "씨유 파주영태리점",
    "lat": 37.771723769741065,
    "lng": 126.7872764827661,
    "roadAddress": "경기도 파주시 월롱면 아동로 142(월롱면)",
    "address": "경기도 파주시 월롱면 영태리 509-2",
    "businessStatus": "영업",
    "hasTrashBag": true,
    "hasSpecialBag": false,
    "hasLargeWasteSticker": true,
    "adminVerified": false,
    "dataReferenceDate": "2026-02-11"
  },
  {
    "name": "지에스25 내유행복점",
    "lat": 37.72899669447938,
    "lng": 126.83978718438739,
    "roadAddress": "경기도 고양시 덕양구 통일로 1318(내유동)",
    "address": "경기도 고양시 덕양구 내유동 783-8",
    "businessStatus": "영업",
    "hasTrashBag": true,
    "hasSpecialBag": false,
    "hasLargeWasteSticker": false,
    "adminVerified": false,
    "dataReferenceDate": "2026-03-23"
  },
  {
    "name": "GS25 봉일천이레점",
    "lat": 37.7432138612231,
    "lng": 126.8062106790665,
    "roadAddress": "경기도 파주시 조리읍 공릉장터길 22(조리읍)",
    "address": "경기도 파주시 조리읍 봉일천리 158-13",
    "businessStatus": "영업",
    "hasTrashBag": true,
    "hasSpecialBag": false,
    "hasLargeWasteSticker": true,
    "adminVerified": false,
    "dataReferenceDate": "2026-03-23"
  },
  {
    "name": "지에스(GS)25 파주방축점",
    "lat": 37.80794032808369,
    "lng": 126.84961719252725,
    "roadAddress": "경기도 파주시 광탄면 부흥로 4(광탄면)",
    "address": "경기도 파주시 광탄면 방축리 386-39",
    "businessStatus": "영업",
    "hasTrashBag": true,
    "hasSpecialBag": false,
    "hasLargeWasteSticker": true,
    "adminVerified": false,
    "dataReferenceDate": "2026-03-23"
  },
  {
    "name": "씨유 운정야당역점",
    "lat": 37.71485280169722,
    "lng": 126.76146087804105,
    "roadAddress": "경기도 파주시 소리천로 25(야당동, 유은타워7차)",
    "address": "경기도 파주시 야당동 1083 유은타워7차",
    "businessStatus": "영업",
    "hasTrashBag": true,
    "hasSpecialBag": false,
    "hasLargeWasteSticker": true,
    "adminVerified": false,
    "dataReferenceDate": "2026-03-24"
  },
  {
    "name": "지에스25 상지석제일점",
    "lat": 37.733502,
    "lng": 126.775303,
    "roadAddress": "운정역길 130 (상지석동)",
    "address": "운정역길 130 (상지석동)",
    "businessStatus": "영업",
    "hasTrashBag": true,
    "hasSpecialBag": false,
    "hasLargeWasteSticker": false,
    "adminVerified": false,
    "dataReferenceDate": "2026-03-17"
  },
  {
    "name": "(주)이오유통",
    "lat": 37.71955474053896,
    "lng": 126.76791046629756,
    "roadAddress": "경기도 파주시 하우3길 81(야당동, (주)태양콜크)",
    "address": "경기도 파주시 야당동 255-1 (주)태양콜크",
    "businessStatus": "영업",
    "hasTrashBag": true,
    "hasSpecialBag": true,
    "hasLargeWasteSticker": true,
    "adminVerified": false,
    "dataReferenceDate": "2026-03-27"
  },
  {
    "name": "별하람 프레쉬마트",
    "lat": 37.74268922756292,
    "lng": 126.76015121529166,
    "roadAddress": "경기도 파주시 별하람로 63(와동동)",
    "address": "경기도 파주시 와동동 1664-478",
    "businessStatus": "영업",
    "hasTrashBag": true,
    "hasSpecialBag": false,
    "hasLargeWasteSticker": true,
    "adminVerified": false,
    "dataReferenceDate": "2026-03-26"
  },
  {
    "name": "CU 봉일천점",
    "lat": 37.74389564077202,
    "lng": 126.80670494522448,
    "roadAddress": "경기도 파주시 조리읍 봉천로 46(조리읍)",
    "address": "경기도 파주시 조리읍 봉일천리 204-13",
    "businessStatus": "영업",
    "hasTrashBag": true,
    "hasSpecialBag": false,
    "hasLargeWasteSticker": true,
    "adminVerified": false,
    "dataReferenceDate": "2026-03-09"
  },
  {
    "name": "GS25 금촌사랑점",
    "lat": 37.75885202115991,
    "lng": 126.76926395516959,
    "roadAddress": "경기도 파주시 동산길 9(금촌동)",
    "address": "경기도 파주시 금촌동 933-14",
    "businessStatus": "영업",
    "hasTrashBag": true,
    "hasSpecialBag": false,
    "hasLargeWasteSticker": true,
    "adminVerified": false,
    "dataReferenceDate": "2026-03-23"
  },
  {
    "name": "세븐일레븐 파주문화로점",
    "lat": 37.76013245353098,
    "lng": 126.77631720027512,
    "roadAddress": "경기도 파주시 문화로 62(금촌동)",
    "address": "경기도 파주시 금촌동 767-1",
    "businessStatus": "영업",
    "hasTrashBag": true,
    "hasSpecialBag": false,
    "hasLargeWasteSticker": false,
    "adminVerified": false,
    "dataReferenceDate": "2026-03-23"
  },
  {
    "name": "오피스웨이(파주) 명성문구",
    "lat": 37.767025224967604,
    "lng": 126.77763098528948,
    "roadAddress": "경기도 파주시 새꽃로 231(아동동)",
    "address": "경기도 파주시 아동동 353-1",
    "businessStatus": "영업",
    "hasTrashBag": true,
    "hasSpecialBag": false,
    "hasLargeWasteSticker": true,
    "adminVerified": false,
    "dataReferenceDate": "2026-03-20"
  },
  {
    "name": "지에스25 파주선유점",
    "lat": 37.865755188631034,
    "lng": 126.80583621439531,
    "roadAddress": "경기도 파주시 문산읍 사임당로 130(문산읍, 에스엠마트)",
    "address": "경기도 파주시 문산읍 선유리 430-63 에스엠마트",
    "businessStatus": "영업",
    "hasTrashBag": true,
    "hasSpecialBag": false,
    "hasLargeWasteSticker": true,
    "adminVerified": false,
    "dataReferenceDate": "2026-03-25"
  },
  {
    "name": "지에스25 파주봉서본점",
    "lat": 37.84530911599378,
    "lng": 126.79212984117261,
    "roadAddress": "경기도 파주시 파주읍 봉서산로 19(파주읍)",
    "address": "경기도 파주시 파주읍 봉서리 836",
    "businessStatus": "영업",
    "hasTrashBag": true,
    "hasSpecialBag": true,
    "hasLargeWasteSticker": true,
    "adminVerified": false,
    "dataReferenceDate": "2026-03-25"
  },
  {
    "name": "지에스25 문발휴게소점",
    "lat": 37.72320863292981,
    "lng": 126.70138263091857,
    "roadAddress": "경기도 파주시 교하로 849(문발동, (주)굿모닝GYS)",
    "address": "경기도 파주시 문발동 89-3 (주)굿모닝GYS",
    "businessStatus": "영업",
    "hasTrashBag": true,
    "hasSpecialBag": true,
    "hasLargeWasteSticker": true,
    "adminVerified": false,
    "dataReferenceDate": "2026-03-26"
  },
  {
    "name": "대하식자재마트",
    "lat": 37.75481295442809,
    "lng": 126.77500532333748,
    "roadAddress": "경기도 파주시 황골로 62-10(금촌동)",
    "address": "경기도 파주시 금촌동 120-2",
    "businessStatus": "영업",
    "hasTrashBag": true,
    "hasSpecialBag": true,
    "hasLargeWasteSticker": true,
    "adminVerified": false,
    "dataReferenceDate": "2026-03-23"
  },
  {
    "name": "팜스앤오렌지",
    "lat": 37.73748043989621,
    "lng": 126.72869306825298,
    "roadAddress": "경기도 파주시 해올로 50(다율동)",
    "address": "경기도 파주시 다율동 1037",
    "businessStatus": "영업",
    "hasTrashBag": true,
    "hasSpecialBag": false,
    "hasLargeWasteSticker": true,
    "adminVerified": false,
    "dataReferenceDate": "2026-03-27"
  },
  {
    "name": "씨유 파주법원점",
    "lat": 37.84964096506379,
    "lng": 126.8730733192924,
    "roadAddress": "경기도 파주시 법원읍 술이홀로 877(법원읍, 명인한의원)",
    "address": "경기도 파주시 법원읍 대능리 92-43 명인한의원",
    "businessStatus": "영업",
    "hasTrashBag": true,
    "hasSpecialBag": false,
    "hasLargeWasteSticker": true,
    "adminVerified": false,
    "dataReferenceDate": "2026-03-27"
  },
  {
    "name": "gs25 파주적성점",
    "lat": 37.954895296212136,
    "lng": 126.91998873867512,
    "roadAddress": "경기도 파주시 적성면 청송로 1034(적성면)",
    "address": "경기도 파주시 적성면 구읍리 649-29",
    "businessStatus": "영업",
    "hasTrashBag": true,
    "hasSpecialBag": false,
    "hasLargeWasteSticker": true,
    "adminVerified": false,
    "dataReferenceDate": "2026-03-27"
  },
  {
    "name": "지에스25 헤이리이편한점",
    "lat": 37.808393362192746,
    "lng": 126.71446189916384,
    "roadAddress": "경기도 파주시 탄현면 헤이리로 372(탄현면, e편한세상 헤이리)",
    "address": "경기도 파주시 탄현면 축현리 1050 e편한세상 헤이리",
    "businessStatus": "영업",
    "hasTrashBag": true,
    "hasSpecialBag": false,
    "hasLargeWasteSticker": true,
    "adminVerified": false,
    "dataReferenceDate": "2026-03-27"
  },
  {
    "name": "지에스더프레시 파주동패점",
    "lat": 37.71097844544326,
    "lng": 126.73891800374199,
    "roadAddress": "경기도 파주시 한울로 65(동패동), 1층",
    "address": "경기도 파주시 동패동 1901-1, 1층",
    "businessStatus": "영업",
    "hasTrashBag": true,
    "hasSpecialBag": true,
    "hasLargeWasteSticker": true,
    "adminVerified": false,
    "dataReferenceDate": "2026-03-26"
  },
  {
    "name": "지에스25 교하행복점",
    "lat": 37.72554651822765,
    "lng": 126.717749473503,
    "roadAddress": "경기도 파주시 청석로 266(동패동, 스타프라자), 102~103호",
    "address": "경기도 파주시 동패동 1695-4 스타프라자, 102~103호",
    "businessStatus": "영업",
    "hasTrashBag": true,
    "hasSpecialBag": false,
    "hasLargeWasteSticker": true,
    "adminVerified": false,
    "dataReferenceDate": "2026-03-26"
  },
  {
    "name": "꼬끼오 대원리점",
    "lat": 37.728131505602676,
    "lng": 126.81387108231145,
    "roadAddress": "경기도 파주시 조리읍 대원로 75(조리읍)",
    "address": "경기도 파주시 조리읍 대원리 274-3",
    "businessStatus": "영업",
    "hasTrashBag": true,
    "hasSpecialBag": false,
    "hasLargeWasteSticker": false,
    "adminVerified": false,
    "dataReferenceDate": "2026-02-03"
  },
  {
    "name": "씨유 파주상지점",
    "lat": 37.7259208,
    "lng": 126.7930004,
    "roadAddress": "경기도 파주시 상지석길 404-3, 1층",
    "address": "경기도 파주시 상지석길 404-3, 1층",
    "businessStatus": "영업",
    "hasTrashBag": true,
    "hasSpecialBag": false,
    "hasLargeWasteSticker": false,
    "adminVerified": false,
    "dataReferenceDate": "2026-03-24"
  },
  {
    "name": "씨유 운정펜테리움점",
    "lat": 37.714326754468395,
    "lng": 126.71358531454807,
    "roadAddress": "경기도 파주시 숲속노을로 153(동패동, 금강 펜테리움 센트럴파크), 상가동 101,102호",
    "address": "경기도 파주시 동패동 2071 금강 펜테리움 센트럴파크, 상가동 101,102호",
    "businessStatus": "영업",
    "hasTrashBag": true,
    "hasSpecialBag": true,
    "hasLargeWasteSticker": true,
    "adminVerified": false,
    "dataReferenceDate": "2026-02-12"
  },
  {
    "name": "지에스25 운정자이본점",
    "lat": 37.73283006459327,
    "lng": 126.72453067696041,
    "roadAddress": "경기도 파주시 운정중앙로 246(다율동, 운정자이 퍼스트시티)",
    "address": "경기도 파주시 다율동 666 운정자이 퍼스트시티",
    "businessStatus": "영업",
    "hasTrashBag": true,
    "hasSpecialBag": false,
    "hasLargeWasteSticker": true,
    "adminVerified": false,
    "dataReferenceDate": "2026-03-26"
  },
  {
    "name": "지에스(GS)25 파주법원규리점",
    "lat": 37.847997004022105,
    "lng": 126.87992581352646,
    "roadAddress": "경기도 파주시 법원읍 사임당로 892-1(법원읍, 호프민들레)",
    "address": "경기도 파주시 법원읍 법원리 447-10 호프민들레",
    "businessStatus": "영업",
    "hasTrashBag": true,
    "hasSpecialBag": false,
    "hasLargeWasteSticker": false,
    "adminVerified": false,
    "dataReferenceDate": "2026-03-27"
  },
  {
    "name": "지에스25 적성천사점",
    "lat": 37.952885895708846,
    "lng": 126.91724618166289,
    "roadAddress": "경기도 파주시 적성면 청송로 1004(적성면, 강원보신탕)",
    "address": "경기도 파주시 적성면 마지리 53-6 강원보신탕",
    "businessStatus": "영업",
    "hasTrashBag": true,
    "hasSpecialBag": false,
    "hasLargeWasteSticker": true,
    "adminVerified": false,
    "dataReferenceDate": "2026-03-27"
  },
  {
    "name": "지에스(GS)25 통일동산점",
    "lat": 37.779615247603935,
    "lng": 126.70370081743935,
    "roadAddress": "경기도 파주시 탄현면 평화로 755(탄현면, 1004편의점)",
    "address": "경기도 파주시 탄현면 법흥리 1676-12 1004편의점",
    "businessStatus": "영업",
    "hasTrashBag": true,
    "hasSpecialBag": true,
    "hasLargeWasteSticker": true,
    "adminVerified": false,
    "dataReferenceDate": "2026-03-27"
  },
  {
    "name": "세븐일레븐 파주가야점",
    "lat": 37.85094475184234,
    "lng": 126.85871673782775,
    "roadAddress": "경기도 파주시 법원읍 사임당로 695(법원읍)",
    "address": "경기도 파주시 법원읍 가야리 327-7",
    "businessStatus": "영업",
    "hasTrashBag": true,
    "hasSpecialBag": false,
    "hasLargeWasteSticker": false,
    "adminVerified": false,
    "dataReferenceDate": "2026-03-27"
  },
  {
    "name": "지에스25 파주믿음점",
    "lat": 37.80274553571028,
    "lng": 126.71854496461437,
    "roadAddress": "경기도 파주시 탄현면 방촌로 658(탄현면)",
    "address": "경기도 파주시 탄현면 축현리 502-6",
    "businessStatus": "영업",
    "hasTrashBag": true,
    "hasSpecialBag": false,
    "hasLargeWasteSticker": true,
    "adminVerified": false,
    "dataReferenceDate": "2026-03-27"
  },
  {
    "name": "세븐일레븐 교하점",
    "lat": 37.752949930211216,
    "lng": 126.74215115026779,
    "roadAddress": "경기도 파주시 교하로 1357(교하동)",
    "address": "경기도 파주시 교하동 538-6",
    "businessStatus": "영업",
    "hasTrashBag": true,
    "hasSpecialBag": false,
    "hasLargeWasteSticker": false,
    "adminVerified": false,
    "dataReferenceDate": "2026-03-27"
  },
  {
    "name": "지에스25 파주애룡점",
    "lat": 37.82871524063716,
    "lng": 126.86725622793344,
    "roadAddress": "경기도 파주시 법원읍 보광로 1717(법원읍, 임마누엘교회)",
    "address": "경기도 파주시 법원읍 삼방리 423-2 임마누엘교회",
    "businessStatus": "영업",
    "hasTrashBag": true,
    "hasSpecialBag": false,
    "hasLargeWasteSticker": false,
    "adminVerified": false,
    "dataReferenceDate": "2026-03-27"
  },
  {
    "name": "지에스25 운정풍경채점",
    "lat": 37.74191526910571,
    "lng": 126.7293115313932,
    "roadAddress": "경기도 파주시 청암로 161(다율동, 해오름마을3단지 제일풍경채 그랑베뉴2차)",
    "address": "경기도 파주시 다율동 1006 해오름마을3단지 제일풍경채 그랑베뉴2차",
    "businessStatus": "영업",
    "hasTrashBag": true,
    "hasSpecialBag": false,
    "hasLargeWasteSticker": true,
    "adminVerified": false,
    "dataReferenceDate": "2026-03-27"
  },
  {
    "name": "씨유 운정에듀하이점",
    "lat": 37.74186811510391,
    "lng": 126.7269048646085,
    "roadAddress": "경기도 파주시 교하로 1160(다율동)",
    "address": "경기도 파주시 다율동 1005",
    "businessStatus": "영업",
    "hasTrashBag": true,
    "hasSpecialBag": false,
    "hasLargeWasteSticker": true,
    "adminVerified": false,
    "dataReferenceDate": "2026-03-27"
  },
  {
    "name": "씨유 파주법흥제일점",
    "lat": 37.78799104665887,
    "lng": 126.71974578174158,
    "roadAddress": "경기도 파주시 탄현면 방촌로 485(탄현면)",
    "address": "경기도 파주시 탄현면 법흥리 46-2",
    "businessStatus": "영업",
    "hasTrashBag": true,
    "hasSpecialBag": false,
    "hasLargeWasteSticker": false,
    "adminVerified": false,
    "dataReferenceDate": "2026-03-27"
  },
  {
    "name": "북파주농협적성지점 하나로마트",
    "lat": 37.95360363166243,
    "lng": 126.91801927526433,
    "roadAddress": "경기도 파주시 적성면 청송로 1010(적성면)",
    "address": "경기도 파주시 적성면 마지리 50-3",
    "businessStatus": "영업",
    "hasTrashBag": true,
    "hasSpecialBag": true,
    "hasLargeWasteSticker": true,
    "adminVerified": false,
    "dataReferenceDate": "2026-03-27"
  },
  {
    "name": "지에스25 맥금로드점",
    "lat": 37.77987690518887,
    "lng": 126.72442523190584,
    "roadAddress": "경기도 파주시 방촌로 382(맥금동), 1층 우측코너",
    "address": "경기도 파주시 맥금동 711-1, 1층 우측코너",
    "businessStatus": "영업",
    "hasTrashBag": true,
    "hasSpecialBag": false,
    "hasLargeWasteSticker": false,
    "adminVerified": false,
    "dataReferenceDate": "2026-03-27"
  },
  {
    "name": "행복할인마트",
    "lat": 37.85532257422937,
    "lng": 126.87747351051966,
    "roadAddress": "경기도 파주시 법원읍 술이홀로 953(법원읍, 리더스빌)",
    "address": "경기도 파주시 법원읍 법원리 525-3 리더스빌",
    "businessStatus": "영업",
    "hasTrashBag": true,
    "hasSpecialBag": false,
    "hasLargeWasteSticker": true,
    "adminVerified": false,
    "dataReferenceDate": "2026-03-27"
  },
  {
    "name": "한국유통 법원점",
    "lat": 37.851519314156036,
    "lng": 126.87302639840829,
    "roadAddress": "경기도 파주시 법원읍 자운서원로 8-46(법원읍, 단성태권도체육관)",
    "address": "경기도 파주시 법원읍 법원리 685-18 단성태권도체육관",
    "businessStatus": "영업",
    "hasTrashBag": true,
    "hasSpecialBag": false,
    "hasLargeWasteSticker": false,
    "adminVerified": false,
    "dataReferenceDate": "2026-03-27"
  },
  {
    "name": "이마트24R 파주율곡점",
    "lat": 37.852228188546505,
    "lng": 126.86943916079204,
    "roadAddress": "경기도 파주시 법원읍 자운서원로 31(법원읍, 법원여자중학교)",
    "address": "경기도 파주시 법원읍 가야리 57-1 법원여자중학교",
    "businessStatus": "영업",
    "hasTrashBag": true,
    "hasSpecialBag": false,
    "hasLargeWasteSticker": true,
    "adminVerified": false,
    "dataReferenceDate": "2026-03-27"
  },
  {
    "name": "꼬끼오 법원지점",
    "lat": 37.85050773989161,
    "lng": 126.868412501391,
    "roadAddress": "경기도 파주시 법원읍 사임당로 787(법원읍)",
    "address": "경기도 파주시 법원읍 가야리 54-62",
    "businessStatus": "영업",
    "hasTrashBag": true,
    "hasSpecialBag": false,
    "hasLargeWasteSticker": true,
    "adminVerified": false,
    "dataReferenceDate": "2026-03-27"
  },
  {
    "name": "세븐일레븐 파주율곡점",
    "lat": 37.84797147758554,
    "lng": 126.88139751529596,
    "roadAddress": "경기도 파주시 법원읍 사임당로 905-1(법원읍, 모모문구)",
    "address": "경기도 파주시 법원읍 법원리 447-50 모모문구",
    "businessStatus": "영업",
    "hasTrashBag": true,
    "hasSpecialBag": false,
    "hasLargeWasteSticker": true,
    "adminVerified": false,
    "dataReferenceDate": "2026-03-27"
  },
  {
    "name": "교하상회(할인마트)",
    "lat": 37.752578494682915,
    "lng": 126.74745254387852,
    "roadAddress": "경기도 파주시 교하로 1409(교하동, 교하할인마트)",
    "address": "경기도 파주시 교하동 352-2 교하할인마트",
    "businessStatus": "영업",
    "hasTrashBag": true,
    "hasSpecialBag": true,
    "hasLargeWasteSticker": true,
    "adminVerified": false,
    "dataReferenceDate": "2026-03-27"
  },
  {
    "name": "탄현식품유통",
    "lat": 37.806163342020234,
    "lng": 126.71731141291254,
    "roadAddress": "경기도 파주시 탄현면 방촌로 698(탄현면)",
    "address": "경기도 파주시 탄현면 축현리 805-5",
    "businessStatus": "영업",
    "hasTrashBag": true,
    "hasSpecialBag": true,
    "hasLargeWasteSticker": true,
    "adminVerified": false,
    "dataReferenceDate": "2026-03-27"
  },
  {
    "name": "지에스25 파주프로방스점",
    "lat": 37.78963985589066,
    "lng": 126.68665515254241,
    "roadAddress": "경기도 파주시 탄현면 새오리로 56(탄현면)",
    "address": "경기도 파주시 탄현면 성동리 67-10",
    "businessStatus": "영업",
    "hasTrashBag": true,
    "hasSpecialBag": false,
    "hasLargeWasteSticker": true,
    "adminVerified": false,
    "dataReferenceDate": "2026-03-27"
  },
  {
    "name": "씨유 파주축현산단점",
    "lat": 37.804445513502976,
    "lng": 126.73851022642756,
    "roadAddress": "경기도 파주시 탄현면 검산로 374(탄현면)",
    "address": "경기도 파주시 탄현면 축현리 80-1",
    "businessStatus": "영업",
    "hasTrashBag": true,
    "hasSpecialBag": false,
    "hasLargeWasteSticker": true,
    "adminVerified": false,
    "dataReferenceDate": "2026-03-27"
  },
  {
    "name": "우주상회",
    "lat": 37.946107998555355,
    "lng": 126.8391098063504,
    "roadAddress": "경기도 파주시 파평면 장마루16길 25(파평면)",
    "address": "경기도 파주시 파평면 장파리 376-1",
    "businessStatus": "영업",
    "hasTrashBag": true,
    "hasSpecialBag": false,
    "hasLargeWasteSticker": true,
    "adminVerified": false,
    "dataReferenceDate": "2026-03-27"
  },
  {
    "name": "편의점 구멍가게",
    "lat": 37.88819137073283,
    "lng": 126.81624739989309,
    "roadAddress": "경기도 파주시 파평면 장승배기로268번길 14(파평면)",
    "address": "경기도 파주시 파평면 율곡리 207-3",
    "businessStatus": "영업",
    "hasTrashBag": true,
    "hasSpecialBag": true,
    "hasLargeWasteSticker": true,
    "adminVerified": false,
    "dataReferenceDate": "2026-03-27"
  },
  {
    "name": "세븐일레븐 파주두포삼거리점",
    "lat": 37.90888109840261,
    "lng": 126.82628755288681,
    "roadAddress": "경기도 파주시 파평면 율곡로 867(파평면)",
    "address": "경기도 파주시 파평면 두포리 425-2",
    "businessStatus": "영업",
    "hasTrashBag": true,
    "hasSpecialBag": false,
    "hasLargeWasteSticker": false,
    "adminVerified": false,
    "dataReferenceDate": "2026-03-27"
  },
  {
    "name": "씨유 적성제일점",
    "lat": 37.9563323810034,
    "lng": 126.9227146210457,
    "roadAddress": "경기도 파주시 적성면 청송로 1063(적성면)",
    "address": "경기도 파주시 적성면 구읍리 589-1",
    "businessStatus": "영업",
    "hasTrashBag": true,
    "hasSpecialBag": false,
    "hasLargeWasteSticker": false,
    "adminVerified": false,
    "dataReferenceDate": "2026-03-27"
  },
  {
    "name": "경기철물",
    "lat": 37.94886067328162,
    "lng": 126.90746170856744,
    "roadAddress": "경기도 파주시 적성면 청송로 900(적성면)",
    "address": "경기도 파주시 적성면 마지리 267-6",
    "businessStatus": "영업",
    "hasTrashBag": true,
    "hasSpecialBag": true,
    "hasLargeWasteSticker": false,
    "adminVerified": false,
    "dataReferenceDate": "2026-03-27"
  },
  {
    "name": "씨유 파주적성점",
    "lat": 37.98487885255347,
    "lng": 126.91705575764298,
    "roadAddress": "경기도 파주시 적성면 감악산로 1567-1(적성면)",
    "address": "경기도 파주시 적성면 주월리 1263-3",
    "businessStatus": "영업",
    "hasTrashBag": true,
    "hasSpecialBag": false,
    "hasLargeWasteSticker": false,
    "adminVerified": false,
    "dataReferenceDate": "2026-03-27"
  },
  {
    "name": "자유로캠핑장",
    "lat": 37.8291163018509,
    "lng": 126.72071677166467,
    "roadAddress": "경기도 파주시 탄현면 자유로 3902-66(탄현면)",
    "address": "경기도 파주시 탄현면 문지리 317",
    "businessStatus": "영업",
    "hasTrashBag": true,
    "hasSpecialBag": false,
    "hasLargeWasteSticker": false,
    "adminVerified": false,
    "dataReferenceDate": "2026-03-27"
  },
  {
    "name": "싱싱마트(삼거리슈퍼)",
    "lat": 37.74432961360032,
    "lng": 126.7278762095162,
    "roadAddress": "경기도 파주시 교하로 1191(오도동)",
    "address": "경기도 파주시 오도동 115-19",
    "businessStatus": "영업",
    "hasTrashBag": true,
    "hasSpecialBag": true,
    "hasLargeWasteSticker": true,
    "adminVerified": false,
    "dataReferenceDate": "2026-03-27"
  },
  {
    "name": "코리아세븐 파주교하점(2081)",
    "lat": 37.72471639895491,
    "lng": 126.71776049302163,
    "roadAddress": "경기도 파주시 청석로 256(동패동, 교하일번가빌딩)",
    "address": "경기도 파주시 동패동 1694-2 교하일번가빌딩",
    "businessStatus": "영업",
    "hasTrashBag": true,
    "hasSpecialBag": false,
    "hasLargeWasteSticker": true,
    "adminVerified": false,
    "dataReferenceDate": "2026-03-27"
  },
  {
    "name": "씨유 헤이리이편한세상점",
    "lat": 37.80749308946552,
    "lng": 126.7132293864823,
    "roadAddress": "경기도 파주시 탄현면 헤이리로 360(탄현면), 101~102호",
    "address": "경기도 파주시 탄현면 금산리 112-4, 101~102호",
    "businessStatus": "영업",
    "hasTrashBag": true,
    "hasSpecialBag": false,
    "hasLargeWasteSticker": true,
    "adminVerified": false,
    "dataReferenceDate": "2026-03-27"
  },
  {
    "name": "지에스(GS) 파주로점",
    "lat": 37.73839803596117,
    "lng": 126.74434352872042,
    "roadAddress": "경기도 파주시 파주로 531(당하동)",
    "address": "경기도 파주시 당하동 240-171",
    "businessStatus": "영업",
    "hasTrashBag": true,
    "hasSpecialBag": false,
    "hasLargeWasteSticker": false,
    "adminVerified": false,
    "dataReferenceDate": "2026-03-26"
  },
  {
    "name": "씨유 운정홍원점",
    "lat": 37.72731448315384,
    "lng": 126.76261181039577,
    "roadAddress": "경기도 파주시 와석순환로515번길 69-1(와동동)",
    "address": "경기도 파주시 와동동 1437",
    "businessStatus": "영업",
    "hasTrashBag": true,
    "hasSpecialBag": true,
    "hasLargeWasteSticker": true,
    "adminVerified": false,
    "dataReferenceDate": "2026-03-26"
  },
  {
    "name": "세븐일레븐 파주출판단지점",
    "lat": 37.73096685704927,
    "lng": 126.69137012524284,
    "roadAddress": "경기도 파주시 문발로 431(신촌동)",
    "address": "경기도 파주시 신촌동 736-3",
    "businessStatus": "영업",
    "hasTrashBag": true,
    "hasSpecialBag": false,
    "hasLargeWasteSticker": true,
    "adminVerified": false,
    "dataReferenceDate": "2026-03-26"
  },
  {
    "name": "지에스더프레시 운정초롱점",
    "lat": 37.70959129699459,
    "lng": 126.72188516635138,
    "roadAddress": "경기도 파주시 양지로 117(동패동)",
    "address": "경기도 파주시 동패동 2124-3",
    "businessStatus": "영업",
    "hasTrashBag": true,
    "hasSpecialBag": true,
    "hasLargeWasteSticker": true,
    "adminVerified": false,
    "dataReferenceDate": "2026-03-26"
  },
  {
    "name": "씨유 운정아르젠점",
    "lat": 37.71292593692329,
    "lng": 126.7155892353722,
    "roadAddress": "경기도 파주시 초롱꽃로 117-36(동패동), 111호",
    "address": "경기도 파주시 동패동 2077-1, 111호",
    "businessStatus": "영업",
    "hasTrashBag": true,
    "hasSpecialBag": false,
    "hasLargeWasteSticker": true,
    "adminVerified": false,
    "dataReferenceDate": "2026-03-26"
  },
  {
    "name": "지에스25 교하도서관",
    "lat": 37.72412626604839,
    "lng": 126.7112028127804,
    "roadAddress": "경기도 파주시 숲속노을로 265(문발동, 토우), 109호",
    "address": "경기도 파주시 문발동 562-2 토우, 109호",
    "businessStatus": "영업",
    "hasTrashBag": true,
    "hasSpecialBag": false,
    "hasLargeWasteSticker": false,
    "adminVerified": false,
    "dataReferenceDate": "2026-03-26"
  },
  {
    "name": "씨유 교하주공점",
    "lat": 37.72659604079399,
    "lng": 126.70928719131962,
    "roadAddress": "경기도 파주시 숲속노을로 299(문발동, 노을빛마을2단지주공아파트), 103~105호",
    "address": "경기도 파주시 문발동 547 노을빛마을2단지주공아파트, 103~105호",
    "businessStatus": "영업",
    "hasTrashBag": true,
    "hasSpecialBag": false,
    "hasLargeWasteSticker": true,
    "adminVerified": false,
    "dataReferenceDate": "2026-03-26"
  },
  {
    "name": "상상키즈룸",
    "lat": 37.73480925515794,
    "lng": 126.73304524930928,
    "roadAddress": "경기도 파주시 청암로 75(다율동, 상상 메디컬 프라자), 408호",
    "address": "경기도 파주시 다율동 1044-8 상상 메디컬 프라자, 408호",
    "businessStatus": "영업",
    "hasTrashBag": true,
    "hasSpecialBag": false,
    "hasLargeWasteSticker": false,
    "adminVerified": false,
    "dataReferenceDate": "2026-03-26"
  },
  {
    "name": "지에스25 중흥본점",
    "lat": 37.71590478095387,
    "lng": 126.71757840805338,
    "roadAddress": "경기도 파주시 심학산로 234(동패동, 초롱꽃마을8단지)",
    "address": "경기도 파주시 동패동 2076 초롱꽃마을8단지",
    "businessStatus": "영업",
    "hasTrashBag": true,
    "hasSpecialBag": true,
    "hasLargeWasteSticker": true,
    "adminVerified": false,
    "dataReferenceDate": "2026-03-26"
  },
  {
    "name": "코리아세븐 문산사임당로점",
    "lat": 37.86371925618588,
    "lng": 126.7992450614746,
    "roadAddress": "경기도 파주시 문산읍 사임당로 65(문산읍, 휴먼시아)",
    "address": "경기도 파주시 문산읍 선유리 1358 휴먼시아",
    "businessStatus": "영업",
    "hasTrashBag": true,
    "hasSpecialBag": false,
    "hasLargeWasteSticker": true,
    "adminVerified": false,
    "dataReferenceDate": "2026-03-26"
  },
  {
    "name": "씨유 운정휴먼시아점(한빛7단지)",
    "lat": 37.710485840840654,
    "lng": 126.75148381009875,
    "roadAddress": "경기도 파주시 와석순환로 70(야당동, 신운정프라자2)",
    "address": "경기도 파주시 야당동 1006-7 신운정프라자2",
    "businessStatus": "영업",
    "hasTrashBag": true,
    "hasSpecialBag": false,
    "hasLargeWasteSticker": true,
    "adminVerified": false,
    "dataReferenceDate": "2026-03-26"
  },
  {
    "name": "코리아세븐 파주운정힐스점",
    "lat": 37.72761815752346,
    "lng": 126.76336409979568,
    "roadAddress": "경기도 파주시 와석순환로515번길 81(와동동)",
    "address": "경기도 파주시 와동동 1452",
    "businessStatus": "영업",
    "hasTrashBag": true,
    "hasSpecialBag": false,
    "hasLargeWasteSticker": true,
    "adminVerified": false,
    "dataReferenceDate": "2026-03-26"
  },
  {
    "name": "GS25 교하다율점",
    "lat": 37.72785146644351,
    "lng": 126.71603305757523,
    "roadAddress": "경기도 파주시 순못길 44(다율동)",
    "address": "경기도 파주시 다율동 992-11",
    "businessStatus": "영업",
    "hasTrashBag": true,
    "hasSpecialBag": false,
    "hasLargeWasteSticker": true,
    "adminVerified": false,
    "dataReferenceDate": "2026-03-26"
  },
  {
    "name": "세븐일레븐 파주산남로점",
    "lat": 37.6998271,
    "lng": 126.69517,
    "roadAddress": "경기도 파주시 산남동 125-1",
    "address": "경기도 파주시 산남동 125-1",
    "businessStatus": "영업",
    "hasTrashBag": true,
    "hasSpecialBag": true,
    "hasLargeWasteSticker": true,
    "adminVerified": false,
    "dataReferenceDate": "2026-03-26"
  },
  {
    "name": "GS25 운정점(롯데리아 뒤)",
    "lat": 37.712135312184536,
    "lng": 126.74513169335594,
    "roadAddress": "경기도 파주시 와석순환로 133(동패동, 형성프라자)",
    "address": "경기도 파주시 동패동 1759 형성프라자",
    "businessStatus": "영업",
    "hasTrashBag": true,
    "hasSpecialBag": false,
    "hasLargeWasteSticker": true,
    "adminVerified": false,
    "dataReferenceDate": "2026-03-26"
  },
  {
    "name": "농협유통하나로마트 교하점",
    "lat": 37.7249229997164,
    "lng": 126.71892995914904,
    "roadAddress": "경기도 파주시 책향기로 423(동패동)",
    "address": "경기도 파주시 동패동 1701",
    "businessStatus": "영업",
    "hasTrashBag": true,
    "hasSpecialBag": true,
    "hasLargeWasteSticker": true,
    "adminVerified": false,
    "dataReferenceDate": "2026-03-26"
  },
  {
    "name": "금메달 슈퍼마켓",
    "lat": 37.7249229997164,
    "lng": 126.71892995914904,
    "roadAddress": "경기도 파주시 책향기로 423(동패동), 115~123,212호",
    "address": "경기도 파주시 동패동 1701, 115~123,212호",
    "businessStatus": "영업",
    "hasTrashBag": true,
    "hasSpecialBag": true,
    "hasLargeWasteSticker": true,
    "adminVerified": false,
    "dataReferenceDate": "2026-03-26"
  },
  {
    "name": "다나와유통",
    "lat": 37.72471639895491,
    "lng": 126.71776049302163,
    "roadAddress": "경기도 파주시 청석로 256(동패동, 교하일번가빌딩)",
    "address": "경기도 파주시 동패동 1694-2 교하일번가빌딩",
    "businessStatus": "영업",
    "hasTrashBag": true,
    "hasSpecialBag": true,
    "hasLargeWasteSticker": true,
    "adminVerified": false,
    "dataReferenceDate": "2026-03-26"
  },
  {
    "name": "세븐일레븐 문발점",
    "lat": 37.727925472593554,
    "lng": 126.7078536723878,
    "roadAddress": "경기도 파주시 아침노을길 71(문발동)",
    "address": "경기도 파주시 문발동 548-5",
    "businessStatus": "영업",
    "hasTrashBag": true,
    "hasSpecialBag": false,
    "hasLargeWasteSticker": true,
    "adminVerified": false,
    "dataReferenceDate": "2026-03-26"
  },
  {
    "name": "지에스25 출판행복도시점",
    "lat": 37.729724996793486,
    "lng": 126.69145334457231,
    "roadAddress": "경기도 파주시 문발로 415(신촌동), 1층 두영빌딩",
    "address": "경기도 파주시 신촌동 740-5, 1층 두영빌딩",
    "businessStatus": "영업",
    "hasTrashBag": true,
    "hasSpecialBag": false,
    "hasLargeWasteSticker": false,
    "adminVerified": false,
    "dataReferenceDate": "2026-03-26"
  },
  {
    "name": "세븐일레븐 아트팩토리점",
    "lat": 37.721688621206425,
    "lng": 126.6942647634762,
    "roadAddress": "경기도 파주시 회동길 480(문발동, 아트팩토리엔제이에프), A동 1층 101호",
    "address": "경기도 파주시 문발동 626-11 아트팩토리엔제이에프, A동 1층 101호",
    "businessStatus": "영업",
    "hasTrashBag": true,
    "hasSpecialBag": true,
    "hasLargeWasteSticker": true,
    "adminVerified": false,
    "dataReferenceDate": "2026-03-26"
  },
  {
    "name": "지에스(gs)25 파주지원점",
    "lat": 37.71895833879189,
    "lng": 126.70560023492428,
    "roadAddress": "경기도 파주시 안개초길 7(문발동), 1층",
    "address": "경기도 파주시 문발동 597-4, 1층",
    "businessStatus": "영업",
    "hasTrashBag": true,
    "hasSpecialBag": false,
    "hasLargeWasteSticker": true,
    "adminVerified": false,
    "dataReferenceDate": "2026-03-26"
  },
  {
    "name": "이마트24 파주책마을점",
    "lat": 37.71658718878917,
    "lng": 126.69129707395545,
    "roadAddress": "경기도 파주시 회동길 337-19(서패동)",
    "address": "경기도 파주시 서패동 471",
    "businessStatus": "영업",
    "hasTrashBag": true,
    "hasSpecialBag": true,
    "hasLargeWasteSticker": true,
    "adminVerified": false,
    "dataReferenceDate": "2026-03-26"
  },
  {
    "name": "벽산건재철물공구상사",
    "lat": 37.73006883837722,
    "lng": 126.70587554283115,
    "roadAddress": "경기도 파주시 지목로 151(신촌동)",
    "address": "경기도 파주시 신촌동 40-26",
    "businessStatus": "영업",
    "hasTrashBag": true,
    "hasSpecialBag": true,
    "hasLargeWasteSticker": true,
    "adminVerified": false,
    "dataReferenceDate": "2026-03-26"
  },